stop_id	stop_code	stop_name	stop_desc	stop_lat	stop_lon	zone_id	location_type	parent_station
7951	7951	Buckley Road (near 108)	BuckleyRd (108)	-41.33689713	174.7827608	3	0	
2354	2354	Champion Street (near 38)	ChampionSt (38)	-41.13513763	174.8510329	5	0	
8611	8611	Moeraki Road (near 32)	MoerakiRd (32)	-41.11041447	175.1003147	7	0	
7786	7786	Aro Street opposite Holloway Road	AroSt opp Holloway	-41.293883	174.761684	1	0	
2916	2916	Tireti Road (near 59)	TiretiRd (59)	-41.10966977	174.8326915	5	0	
1515	1515	Waikanae School (school stop)	WaikanaeSch (sch)	-40.87679826	175.0689793	10	0	
1234	1234	Martin Road at Walton Road	MartinRd at Walton	-40.88852911	174.9957141	9	0	
6913	6913	Taranaki Street (near 217)	TaranakiSt (217)	-41.29900253	174.7752786	1	0	
6559	6559	Hataitai Road at Hataitai School	HataitaiRd at HataitaiSch	-41.2978909	174.8004493	2	0	
6163	6163	Houghton Bay - The Esplanade (near 86)	HgtnBay-TheEsp (86)	-41.341733	174.784566	3	0	
5410	5410	Cockayne Road (near 196)	CockayneRd (196)	-41.25263441	174.7798706	3	0	
3014	3014	Ohariu Road (near 67)	OhariuRd (67)	-41.21715345	174.8025273	3	0	
7729	7729	Quebec Street at Baffin Grove	QuebecSt at Baffin	-41.32097999	174.7635688	2	0	
RARO	RARO	Raroa Station	RaroaStn	-41.23225739	174.8017479	3	0	
1937	1937	High Street North (near 238)	HighStN (238)	-41.02012639	175.5321187	13	0	
4936	4936	Mairangi - Norwich Street	Mairangi-NorwichSt	-41.26503531	174.764211	2	0	
3921	3921	Redwood School (school stop)	RedwoodSch (sch)	-41.181721	174.821667	4	0	
3237	3237	Churton Drive at Windermeer Grove	ChurtonDr at Windermeer	-41.21162677	174.8094557	3	0	
1900	1900	Martinborough - Kitchener Street (near 14)	Martinborough-KitchenerSt (14)	-41.21699685	175.4582321	13	0	
6936	6936	Hungerford Road at Houghton Bay Road	HungerfordRd at HoughtonBay	-41.33880744	174.7873543	3	0	
7044	7044	Inglis Street opposite Mantell Street	InglisSt opp Mantell	-41.32819752	174.8319928	3	0	
WEST	WEST	Western Hutt Station	WesternHuttStn	-41.21187	174.889995	4	0	
9859	9859	San Antonio School (hail and ride) (school stop)	SanAntonioSch (h/r) (sch)	-41.293577	174.894997	6	0	
7014	7014	Adelaide Road at Basin Reserve (near 12)	AdelaideRd at Basin (12)	-41.30174187	174.7795879	1/2	0	
7572	7572	Alexandra Road at SPCA	AlexandraRd at SPCA	-41.307091	174.787932	2	0	
3212	3212	Burbank Crescent at Wantwood Street	BurbankCres at Wantwood	-41.20541744	174.8099574	3	0	
9167	9167	Waiwhetu Road at Waterloo Road (near 175)	WaiwhetuRd at Waterloo (175)	-41.21291848	174.9303986	4	0	
9049	9049	Belmont Flat - Western Hutt Road (northbound)	BelmontFlt-WesternHuttRd (n)	-41.18607212	174.9360481	5	0	
9409	9409	Pinehaven Road at Blue Mountains Road	PinehavenRd at BlueMtns	-41.15537692	175.0136804	6	0	
5923	5923	Northland Road (near 87)	NorthlandRd (87)	-41.28150761	174.7590426	2	0	
9117	9117	High Street at Melling Link	HighSt at MellingLink	-41.20643809	174.9085013	4	0	
5423	5423	Cashmere Avenue School (opposite)	CashmereAveSch (opp)	-41.24783969	174.7985969	3	0	
1610	1610	Reeves Street (near 7)	ReevesSt (7)	-40.85317077	175.037237	10	0	
3918	3918	Main Road Tawa (near 249)	MainRdTawa (249)	-41.16506809	174.8268446	4	0	
7795	7795	Happy Valley Road (near 305)	HappyVlyRd (305)	-41.32691632	174.7582324	3	0	
2122	2122	Warspite Avenue (near 183)	WarspiteAve (183)	-41.1323261	174.8800226	5	0	
8533	8533	Lane Street (near 4)	LaneSt (4)	-41.13355452	175.0609047	7	0	
6040	6040	Dundas Street at Falkirk Avenue	DundasSt at Falkirk	-41.32254646	174.8305202	3	0	
1927	1927	State Highway 2 at Waihakeke Road	SH2 at Waihakeke	-41.05094256	175.4985586	13	0	
9245	9245	High Street at Tennyson Avenue	HighSt at Tennyson	-41.19359192	174.9441398	5	0	
3980	3980	Middleton Road (near 48)	MiddletonRd (48)	-41.21839359	174.8095995	3	0	
7131	7131	The Parade (near 98)	Parade (98)	-41.33253142	174.7735137	3	0	
7123	7123	Luxford Street at Rintoul Street	LuxfordSt at Rintoul	-41.31986465	174.7775174	2	0	
6140	6140	Frobisher Street (near 35)	FrobisherSt (35)	-41.34179991	174.7626964	3	0	
6017	6017	Wellington Hospital - Stop C	WgtnHosp-C	-41.308939	174.778593	2	0	
5133	5133	Gloucester Street at Worcester Street (near 21)	GloucesterSt at Worcester (21)	-41.27009861	174.7570649	2	0	
8241	8241	Molesworth Street at Partridge Street	MolesworthSt at Partridge	-41.17130183	174.9625531	5	0	
1588	1588	Sylvan Avenue (near 39)	SylvanAve (39)	-40.8692436	175.0627703	10	0	
5454	5454	Bombay Street at Tarikaka Street	BombaySt at Tarikaka	-41.24945	174.7811	3	0	
PLIM1	PLIM1	Plimmerton Station	PlimmertonStn	-41.08388941	174.8672587	6	0	PLIM	
9138	9138	Harbour View Road at Panorama Grove (school stop)	HarbourViewRd at Panorama (sch)	-41.20279	174.89532	4	0	
5516	5516	Courtenay Place - Stop C	CourtenayPl-C	-41.29375246	174.7827796	1	0	
3772	3772	Glanmire Road at Turville Crescent	GlanmireRd at Turville	-41.2291556	174.8239749	3	0	
5098	5098	Jervois Quay at Frank Kitts Park (school stop)	JervoisQy at FrankKittsPk (sch)	-41.287709	174.778363	1	0	
6091	6091	Monorgan Road at Scots College (school stop)	MonorganRd at Scots (sch)	-41.32823532	174.8182524	3	0	
1972	1972	South Road at Kuripuni Street	SouthRd at Kuripuni	-40.95908498	175.6471705	14	0	
8980	8980	Wise Street at Derwent Street (near 39)	WiseSt at Derwent (39)	-41.25139035	174.9511043	5	0	
9058	9058	Dowse Drive at Acacia Avenue (near 215)	DowseDr at Acacia (215)	-41.20485371	174.8788774	4	0	
8551	8551	Shakespeare Avenue (near 49)	ShakespeareAve (49)	-41.12447236	175.0448969	7	0	
9316	9316	George Street at Logie Street	GeorgeSt at Logie	-41.17506747	174.9793549	6	0	
7092	7092	Raukawa Street (near 40)	RaukawaSt (40)	-41.33114275	174.8166604	3	0	
8978	8978	Wise Street at Pencarrow Crescent (near 127)	WiseSt at Pencarrow (127)	-41.24420645	174.9498165	5	0	
2306	2306	Champion Street at Hereford Street (near 129)	ChampionSt at Hereford (129)	-41.13525228	174.8606864	5	0	
7124	7124	Luxford Street at Berhampore Shops	LuxfordSt at BerhamporeShops	-41.31980227	174.7757236	2	0	
6270	6270	Awa Road at Seatoun Heights Road	AwaRd at Seatoun Heights	-41.31224788	174.8267676	3	0	
3909	3909	Takapu Road opposite Bing Lucas Drive (school stop)	TakapuRd opp BingLucas (sch)	-41.18156	174.834726	4	0	
6941	6941	Russell Terrace opposite Angus Avenue	RussellTce opp Angus	-41.319251	174.780581	2	0	
9132	9132	Cornwall Street at RSA	CornwallSt at RSA	-41.21075355	174.9089845	4	0	
9916	9916	Wood Street (near 56)	WoodSt (56)	-41.27988505	174.9492068	5	0	
1249	1249	Kapiti Road at Tudor Court	KapitiRd at Tudor	-40.89556388	174.9847672	9	0	
9576	9576	Wilson Street at Bradley Lane	WilsonSt at Bradley	-41.124958	175.0681401	7	0	
7129	7129	The Parade (near 36)	Parade (36)	-41.32902251	174.7739488	3	0	
6541	6541	Evans Bay Parade near Little Karaka Bay	EvansBayPde nr LittleKarakaBay	-41.28991939	174.803335	2	0	
1877	1877	Opaki Road at First Street	OpakiRd at First	-40.94307064	175.6698121	14	0	
2523	2523	Mana Esplanade near BP	ManaEsp nr PetrolStn	-41.09602385	174.8691041	6	0	
9955	9955	Mohaka Street (near 29)	MohakaSt (29)	-41.24754303	174.9335658	5	0	
2505	2505	Mana View Road (hail and ride) (school stop)	ManaViewRd (h/r) (sch)	-41.094574	174.872189	6	0	
2613	2613	Penryn Drive (near 9) (hail and ride) (school stop)	PenrynDr (9) (sch)	-41.09130616	174.8738612	6	0	
2766	2766	Discovery Drive at The Sounding	DiscoveryDr at Sounding	-41.11363934	174.8880643	6	0	
3220	3220	Amesbury Drive at Derry Hill	AmesburyDr at DerryHl	-41.20189655	174.8047322	3	0	
6939	6939	Sinclair Park - Houghton Bay Road (school stop)	SinclairPk-HoughtonBayRdv (sch)	-41.33073411	174.7852217	3	0	
7216	7216	Waitoa Road at Bus Tunnel (near 73)	WaitoaRd at Tnnl (73)	-41.30230235	174.7921126	2	0	
5117	5117	Grosvenor Terrace at Orchard Street steps	GrosvenorTce at OrchardSt steps	-41.26695547	174.7799014	2	0	
6769	6769	Karepa Street at Mitchell Street	KarepaSt at Mitchell	-41.30737327	174.7580655	2	0	
9106	9106	Railway Avenue (near 21)	RailwayAve (21)	-41.21226993	174.8935224	4	0	
9293	9293	Kowhai Street at Cambridge Terrace	KowhaiSt at CambridgeTce	-41.19298846	174.9531844	5	0	
9558	9558	Gibbons Street opposite Flora McCurdy Walk	GibbonsSt at FMcCurdyWalk	-41.11942366	175.0653459	7	0	
8287	8287	Hewer Crescent at Sladden Street (near 116)	HewerCres at Sladden (116)	-41.19415881	174.9532192	5	0	
2930	2930	Titahi Bay - Pikarere Street (near 132)	TitahiBay-PikarereSt (132)	-41.1115278	174.8234536	5	0	
6552	6552	Evans Bay Parade (opposite 508)	EvansBayPde (opp 508)	-41.31145932	174.7967611	2	0	
5322	5322	Chaytor Street at Joll Street	ChaytorSt at Joll	-41.28269364	174.7521488	3	0	
9145	9145	Waiwhetu Road at Rodney Street (near 40)	WaiwhetuRd at Rodney (40)	-41.22273227	174.9144628	4	0	
7924	7924	Wellington Zoo - Stop A	WgtnZoo-A	-41.31922279	174.7840711	2	0	
1122	1122	Michael Road (near 47)	MichaelRd (47)	-40.88341347	174.999833	9	0	
6010	6010	Basin Reserve (school stop)	BasinRes (sch)	-41.3012281	174.7814013	1	0	
9526	9526	Trentham Station - Ararino Street	TrenthamStn-ArarinoSt	-41.13709535	175.0390937	6/7	0	
7087	7087	Ira Street at Miramar Avenue (near 95)	IraSt at Miramar (95)	-41.31801756	174.8197174	3	0	
6025	6025	Crawford Road at Childers Terrace	CrawfordRd at Childers	-41.31720028	174.7934594	2	0	
8272	8272	Waddington Drive at Hamerton Street	WaddingtonDr at Hamerton	-41.20418345	174.9409947	5	0	
2334	2334	Bedford Street at Durham Street (near 73)	BedfordSt at Durham (73)	-41.14600418	174.8642077	5	0	
9130	9130	Lower Hutt - Queensgate - Stop C	LowerHutt-C	-41.21037055	174.904918	4	0	
8091	8091	London Road (near 30)	LondonRd (30)	-41.21548057	174.8734559	4	0	
8621	8621	Plateau Road at Te Marua Store	PlateauRd at TeMaruaStore	-41.09392149	175.1302689	8	0	
7037	7037	Broadway at Bentinck Avenue	Broadway at Bentinck	-41.32410641	174.8230364	3	0	
6540	6540	Evans Bay Parade near Point Jerningham	EvansBayPde nr PtJerningham	-41.28775	174.80384	2	0	
1906	1906	State Highway 53 at Camp Road	SH53 at Camp	-41.13462256	175.352937	11	0	
2612	2612	Mana View Road opposite Penryn Drive (hail and ride) (school stop)	ManaViewRd opp PenrynDr (h/r) (sch)	-41.0916019	174.8721982	6	0	
2836	2836	Dimock Street (near 141)	DimockSt (141)	-41.09915275	174.8425332	5	0	
1286	1286	Guildford Drive - Kapiti Village	GuildfordDr-KapitiVlg	-40.90139251	175.001918	9	0	
9373	9373	George Street at Stokes Valley Road	GeorgeSt at StokesVlyRd	-41.1824945	174.9822016	6	0	
3825	3825	Burma Road near Haumia Street (Raroa Intermediate)	RaroaInterSch	-41.2297734	174.799941	3	0	
5453	5453	Colway Street at Bombay Street	ColwaySt at Bombay (63)	-41.24993521	174.779678	3	0	
2356	2356	Champion Street (near 2)	ChampionSt (2)	-41.1376516	174.8477956	5	0	
5911	5911	The Terrace at Bolton Street (near 25)	Terrace at Bolton (25)	-41.27981413	174.7754748	1	0	
9153	9153	Randwick Road at Tirangi Road	RandwickRd at Tirangi	-41.23136705	174.9043345	4	0	
3036	3036	McLintock Street (near 3)	McLintockSt (3)	-41.22702988	174.7930154	3	0	
2166	2166	Mungavin Avenue at Bedford Street (near 200)	MungavinAve at Bedford (200)	-41.14097393	174.8633503	5	0	
1269	1269	Murray Court (near 15)	MurrayCrt (15)	-40.89313704	174.994903	9	0	
6139	6139	Severn Street (near 121) (school stop)	SevernSt (121) (sch)	-41.34376785	174.7635861	3	0	
7218	7218	Moxham Avenue at Raupo Street (near 88)	MoxhamAve at Raupo (88)	-41.30747512	174.7929403	2	0	
8969	8969	Wellington Road at Kew Grove	WgtnRd at Kew	-41.23542424	174.947169	5	0	
7700	7700	Brooklyn - Stop A	Brooklyn-A	-41.30503322	174.765401	2	0	
3550	3550	Newlands Bus Depot - Newlands Road	NewlandsBusDepot-NewlandsRd	-41.23150288	174.812228	3	0	
3708	3708	Woodridge Drive (near 91)	WoodridgeDr (91)	-41.21522	174.8337	3	0	
2870	2870	Takapuwahia Drive at Te Hiko Street (near 55)	TakapuwahiaDr at TeHiko (55)	-41.12463684	174.8319623	5	0	
1288	1288	Te Roto Drive at Manchester Street (near 460)	TeRotoDr at Manchester (460)	-40.90420195	175.0009343	9	0	
7937	7937	Houghton Bay Road near Cave Road	HgtnBayRd nr Cave	-41.34063963	174.7853727	3	0	
7027	7027	Rongotai Road at Ross Street	RongotaiRd at Ross	-41.31859567	174.7982038	3	0	
JOHN	JOHN	Johnsonville Station	JohnsonvilleStn	-41.22334496	174.8047433	3	0	
2936	2936	Hiwi Crescent (near 22)	HiwiCr (22)	-41.11359153	174.829782	5	0	
3470	3470	Bracken Road at Oswald Crescent	BrackenRd at Oswald	-41.22213869	174.8234219	3	0	
2756	2756	Discovery Drive (opposite 111)	DiscoveryDr (opp 111)	-41.11615432	174.8994513	6	0	
8852	8852	Muritai Road at Ngaio Street (near 272)	MuritaiRd at Ngaio (272)	-41.29689133	174.8963268	6	0	
9114	9114	Lower Hutt - Centre City Plaza	LowerHutt-CtrCityPlaza	-41.21031207	174.903008	4	0	
1726	1726	Otaki College - Mill Road	OtakiColl-MillRd	-40.75788989	175.1525505	13	0	
9216	9216	Major Drive at Ilam Grove (near 187)	MajorDr at Ilam (187)	-41.17634508	174.9359999	5	0	
6126	6126	Adelaide Road at Dawson Street	AdelaideRd at Dawson	-41.32305271	174.7752144	2	0	
7036	7036	Strathmore Park Shops - Broadway	StrathmorePkShops-Broadway	-41.32459439	174.8206604	3	0	
3056	3056	Truscott Avenue at Fairburn Grove	TruscottAve at Fairburn	-41.22554285	174.7959574	3	0	
4914	4914	The Terrace (near 230)	Terrace (230)	-41.28796876	174.7723522	1	0	
1967	1967	Harley Street (near 86)	HarleySt (86)	-40.96412372	175.6356086	14	0	
1592	1592	Parata Street opposite Sylvan Avenue	ParataSt opp SylvanAve	-40.87199	175.06769	10	0	
6722	6722	Washington Avenue (near 115)	WashingtonAve (115)	-41.30823748	174.7663311	2	0	
3907	3907	Jamaica Drive at Calypso Street (hail and ride) (school stop)	JamaicaDr at Calypso (h/r) (sch)	-41.189024	174.834912	4	0	
7269	7269	Nevay Road (opposite 16)	NevayRd (16)	-41.31069648	174.8280383	3	0	
1420	1420	The Parade at Sand Track	The Parade at Sand Track	-40.98441091	174.9521866	8	0	
9973	9973	Parkway at Brian Morgan Terrace	Parkway at Brian MorganTer	-41.2544	174.94132	5	0	
6729	6729	The Ridgeway at Kingston Heights Road	Ridgeway at KingstonHeights	-41.32079443	174.7639222	2	0	
6952	6952	Buckley Road (near 146)	BuckleyRd (146)	-41.33926205	174.7812717	3	0	
2590	2590	Tweed Road at Spey Place	TweedRd at Spey	-41.11307432	174.8662494	5	0	
7024	7024	Crawford Road at Kilbirnie Tennis Club	CrawfordRd at TennisClub	-41.31605406	174.7909138	2	0	
6419	6419	Adelaide Road opposite McAlister Park	AdelaideRd opp McAlisterPk	-41.31710309	174.7755308	2	0	
8539	8539	Queen Street at Logan Plaza	QueenSt at LoganPlaza	-41.12296693	175.073676	7	0	
4430	4430	Homebush Road (near 33)	HomebushRd (33)	-41.24897686	174.8065049	3	0	
4433	4433	Onslow Alms - Onslow Road	OnslowAlms-OnslowRd	-41.25311065	174.8013673	3	0	
2301	2301	Champion Street (opposite 38)	ChampionSt (opp 38)	-41.13505142	174.8507922	5	0	
3472	3472	Newlands Medical Centre - Stewart Drive	NewlandsMedCtr-StewartDr	-41.22233952	174.8221152	3	0	
1524	1524	Te Moana Road at Richmond Avenue	TeMoanaRd at Richmond	-40.87836628	175.0462018	10	0	
1258	1258	Martin Road at Michael Road (near 39)	MartinRd at Michael (39)	-40.88684934	174.9938833	9	0	
9877	9877	Tirohanga Road at Matuhi Street (hail and ride) (school stop)	TirohangaRd at Matuhi (h/r) (sch)	-41.19694564	174.9050416	4	0	
8780	8780	Gracefield Road (opposite 114)	GracefieldRd (114)	-41.23826945	174.9171834	4	0	
WALL1	WALL1	Wallaceville Station	WallacevilleStn	-41.13063693	175.0588165	7	0	WALL	
TREN1	TREN1	Trentham Station	TrenthamStn	-41.13791945	175.0384812	6/7	0	TREN	
1540	1540	Queens Road at Campion Road	QueensRd at Campion	-40.8704175	175.018806	10	0	
2556	2556	Spinnaker Drive at Leeward Drive (near 26)	SpinnakerDr at Leeward (26)	-41.1061511	174.8888024	6	0	
1326	1326	Tahi Street at Marine Parade (near 1)	TahiSt at Marine (1)	-40.90216839	174.9778416	9	0	
9968	9968	Wellington Road at Arakura Park (near 273)	WgtnRd at ArakuraPk (273)	-41.23733295	174.9461518	5	0	
5930	5930	Pembroke Road (near 203)	PembrokeRd (203)	-41.27064127	174.76281	2	0	
4447	4447	Kenya Street (near 37)	KenyaSt (37)	-41.25438204	174.7716825	3	0	
1422	1422	Matai Road (near 187)	MataiRd (187)	-40.9242621	174.9869486	9	0	
9587	9587	Fergusson Drive at Cruickshank Road (near 1125)	FergussonDr at Cruickshank (1125)	-41.11554102	175.090831	7	0	
1774	1774	State Highway 1 - Otaki (near 226)	SH1-Otaki (226)	-40.76141338	175.1568105	13	0	
8159	8159	Hutt Valley High School (opposite)	HVHS (opp)	-41.21572565	174.9024492	4	0	
9956	9956	Manutuke Street	ManutukeSt	-41.24617458	174.9345995	5	0	
8624	8624	Plateau Road (near 122)	PlateauRd (122)	-41.09612085	175.1379602	8	0	
7933	7933	View Road (near 24)	ViewRd (24)	-41.33481627	174.7891573	3	0	
8967	8967	Wellington Road at Whitehall Street	WgtnRd at Whitehall	-41.2402259	174.9455217	5	0	
2732	2732	James Cook Drive at Observatory Close	JamesCookDr at Observatory	-41.11061331	174.9022689	6	0	
6143	6143	Frobisher Street at Murchison Street	FrobisherSt at Murchison	-41.33735527	174.7647276	3	0	
4930	4930	Mairangi Road at Monmouth Way	MairangiRd at Monmouth	-41.270825	174.7625761	2	0	
6933	6933	View Road (near 33)	ViewRd (33)	-41.33487719	174.7893238	3	0	
3809	3809	Burma Road near Haumia Street	BurmaRd nr Haumia	-41.229609	174.799963	3	0	
9240	9240	Reynolds Street (near 125)	ReynoldsSt (125)	-41.17288708	174.9593818	5	0	
1732	1732	Otaki Town - Aotaki Street at Mill Road	OtakiTown-AotakiSt at Mill	-40.75324893	175.1405557	13	0	
7223	7223	Kilbirnie Crescent at Childers Terrace	KilbirnieCres at Childers	-41.31603037	174.7937765	2	0	
7094	7094	Taiaroa Street at Tukanae Street (near 24)	TairoaSt at Tukanae (24)	-41.33410437	174.8173402	3	0	
9072	9072	Normandale Road near Jubilee Park	NormandaleRd nr JubileePk	-41.20688383	174.8924129	4	0	
4386	4386	Duthie Street at Hurman Street	DuthieSt at Hurman	-41.2891624	174.7473063	3	0	
6921	6921	Mansfield Street at Horner Street	MansfieldSt at Horner	-41.31746837	174.7810364	2	0	
1252	1252	Golf Road at Nathan Avenue	GolfRd at Nathan	-40.88756433	174.986611	9	0	
3816	3816	Rajkot Terrace at Orissa Crescent	RajkotTce at Orissa	-41.23724546	174.7963971	3	0	
9529	9529	Miro Street (near 90)	MiroSt (90)	-41.13360179	175.0481588	7	0	
7213	7213	Brougham Street at Elizabeth Street	BroughamSt at Elizabeth	-41.29674489	174.7852703	1	0	
8735	8735	Seaview Road opposite Gracefield Road	SeaviewRd opp Gracefield	-41.24586672	174.9098872	4	0	
1384	1384	Rimu Road at Rimu Village	RimuRd at RimuVlg	-40.92147359	174.9970614	9	0	
4403	4403	Kaiwharawhara Road (near 68)	KaiwharawharaRd (68)	-41.25754386	174.7827493	2	0	
6334	6334	Rua Street at Queens Drive	RuaSt at Queens	-41.33008808	174.7920152	3	0	
3204	3204	Middleton Road (near 71)	MiddletonRd (71)	-41.21604521	174.8100119	3	0	
1960	1960	Michael Street (near 17)	MichaelSt (17)	-40.95566821	175.6469151	14	0	
8575	8575	Fergusson Drive at Richmond Street	FergussonDr at Richmond	-41.12544402	175.0611273	7	0	
9906	9906	Main Road at Fitzherbert Road	MainRd at Fitzherbert	-41.26324439	174.9478761	5	0	
6922	6922	Mansfield Street at Roy Street (near 311)	MansfieldSt at Roy (311)	-41.31882327	174.7815034	2	0	
1710	1710	State Highway 1 - Otaki (near 239)	SH1-Otaki (239)	-40.76132779	175.1565708	13	0	
1802	1802	State Highway 53 at Bidwills Cutting (hail and ride)	SH53 at BidwillsCutting (h/r)	-41.18007196	175.4341511	12	0	
7564	7564	Moeller Street at Hawker Street	MoellerSt at Hawker	-41.29218588	174.7908578	1	0	
7016	7016	Adelaide Road opposite Hospital Road	AdelaideRd opp Hospital	-41.30634478	174.7781057	2	0	
2014	2014	Porirua - Semple Street	Porirua-SempleSt	-41.12971804	174.8374328	5	0	
9567	9567	Trentham Memorial Park (near 441)	TrenthamMemorialPk (441)	-41.13704369	175.0318245	6/7	0	
8586	8586	Fergusson Drive (opposite 1093)	FergussonDr (opp 1093)	-41.1170375	175.0877818	7	0	
8697	8697	Gillespies Road (near 44) (school stop)	GillespiesRd (44) (sch)	-41.08992127	175.1028761	7	0	
1156	1156	Manly Street opposite Bahama Crescent	ManlySt opp Bahama	-40.8828431	174.9859299	9	0	
8985	8985	Wainuiomata Shopping Centre - Fitzherbert Road	WainuiomataShoppingCtr - FitzherbertRd	-41.26154601	174.9471094	5	0	
7946	7946	Mt Albert Road opposite National Hockey Stadium	Mt Albert opp NatHockeyStadium	-41.32644504	174.7803546	3	0	
2032	2032	Aotea College - Stop B (school stop)	AoteaCollege-B (sch)	-41.12580686	174.8537935	5	0	
6549	6549	Evans Bay Parade (opposite 412)	EvansBayPde (opp 412)	-41.30647019	174.7990131	2	0	
POMA	POMA	Pomare Station	PomareStn	-41.16945495	174.9697209	5	0	
2602	2602	Paremata Road (near 79)	ParemataRd (79)	-41.10316739	174.878476	6	0	
8096	8096	Korokoro - Singers Road	Korokoro-SingersRd	-41.22049129	174.8644133	4	0	
7545	7545	Kio Bay (opposite)	KioBay (opp)	-41.29756097	174.8042622	2	0	
2914	2914	Tireti Road (near 45)	TiretiRd (45)	-41.10901489	174.8342214	5	0	
2340	2340	Bedford Street (near 187)	BedfordSt (187)	-41.1436093	174.8674762	5	0	
9253	9253	High Street at Biddle Crescent	HighSt at Biddle	-41.17572126	174.9622082	5	0	
7918	7918	John Street at Adelaide Road (near 11)	JohnSt at Adelaide (11)	-41.30723661	174.7773118	2	0	
2526	2526	Postgate Drive at Browns Bay Park	PostgateDr at BrownsBayPk	-41.10708412	174.8813266	6	0	
1722	1722	Rahui Road at Te Roto Road	RahuiRd at TeRoto	-40.76284624	175.1620694	13	0	
2934	2934	Pikarere Street at Rakihau Place (near 76)	PikarereSt at Rakihau (76)	-41.1129848	174.8281388	5	0	
3900	3900	Middleton Road at Glenside Road	MiddletonRd at Glenside	-41.20611147	174.8116463	3	0	
6946	6946	National Hockey Stadium	NatHockeyStadium	-41.32652479	174.7804805	3	0	
7064	7064	Worser Bay - Marine Parade (opposite 185)	WorserBay-MarinePde (185)	-41.31463618	174.827639	3	0	
7251	7251	Maupuia Road at Miramar Avenue	MaupuiaRd at Miramar	-41.31449637	174.8129432	3	0	
3274	3274	Halswater Drive opposite Lakewood Reserve	HalswaterDr opp LakewoodRes	-41.20732947	174.8050803	3	0	
8839	8839	Marine Drive near Lowry Bay	MarineDr nr LowryBay	-41.25753474	174.9123756	5	0	
9605	9605	Emerald Hill - Gemstone Drive	EmeraldHl-GemstoneDr	-41.09473525	175.1105307	7	0	
8072	8072	Jubilee Park (opposite)	JubileePk (opp)	-41.20697582	174.8922963	4	0	
4459	4459	Khandallah - Box Hill at Station Road East	KHAN-BoxHill at StationRdE	-41.24228705	174.7924128	3	0	
8348	8348	Park Road at Natusch Road (near 12)	ParkRd at Natusch (12)	-41.19308772	174.9205147	5	0	
2628	2628	Mana View Road (near 46) (hail and ride) (school stop)	ManaViewRd (46) (h/r) (sch)	-41.09440436	174.8727774	6	0	
1414	1414	Te Miti Street (near 20)	TeMitiSt (20)	-40.97843287	174.9622737	8	0	
5490	5490	Thorndon Quay opposite Tinakori Road	ThorndonQy opp Tinakori	-41.26816	174.78122	1	0	
2335	2335	Bedford Street (near 92)	BedfordSt (92)	-41.14679132	174.86566	5	0	
5914	5914	Salamanca Road at The Terrace	SalamancaRd at Terrace	-41.28879378	174.7714192	1	0	
5113	5113	Molesworth Street (near 95)	MolesworthSt (95)	-41.27428332	174.7778321	1	0	
6047	6047	Breaker Bay Road (opposite 124)	BreakerBayRd (opp 124)	-41.33433213	174.8257117	3	0	
9284	9284	Rata Street School (near 76)	RataStSch (76)	-41.19984156	174.9580392	5	0	
3050	3050	Johnsonville West - McLintock Street (near 74)	J'villeW-McLintockSt (74)	-41.22308135	174.7920724	3	0	
7098	7098	Kekerenga Street at Ahuriri Street	KekerengaSt at Ahuriri	-41.33619019	174.8164421	3	0	
6119	6119	Rintoul Street at Newtown Shops	RintoulSt at Shops	-41.31236599	174.7789861	2	0	
9057	9057	Maungaraki Shops - Dowse Drive	MaungarakiShops-DowseDr	-41.20855081	174.8786254	4	0	
1522	1522	Te Moana Road at Leybourne Avenue (near 382)	TeMoanaRd at Leybourne (382)	-40.87856261	175.0503614	10	0	
8253	8253	High Street at Watkins Grove	HighSt at Watkins	-41.17589929	174.9623327	5	0	
3416	3416	Beazley Avenue (near 110)	BeazleyAve (110)	-41.21731087	174.8211406	3	0	
3232	3232	Waverton Terrace (near 12)	WavertonTce (12)	-41.20481313	174.8025463	3	0	
1847	1847	Queen Street - The Warehouse	QueenSt	-40.95511162	175.6530839	14	0	
8853	8853	Muritai Road at Hinau Street (near 314)	MuritaiRd at Hinau (314)	-41.2986176	174.8954213	6	0	
4364	4364	Woodhouse Avenue (opposite 24)	WoodhouseAve (opp 24)	-41.28976211	174.7254682	3	0	
3520	3520	Link Road (near 29)	LinkRd (29)	-41.22769428	174.8252466	3	0	
2592	2592	Tweed Road at Ness Grove (near 41)	TweedRd at Ness (41)	-41.11511529	174.8638097	5	0	
8615	8615	Timberlea - Norana Road (near 126)	Timberlea-NoranaRd (126)	-41.10262304	175.1066717	7	0	
3982	3982	Middleton Road (near 18)	MiddletonRd (18)	-41.21976284	174.8084443	3	0	
6768	6768	Karepa Street (near 175)	KarepaSt (175)	-41.30602639	174.7577904	2	0	
6153	6153	Owhiro Bay - Happy Valley Road (near 4)	OwhiroBay-HappyVlyRd (4)	-41.34410014	174.7595314	3	0	
7021	7021	Constable Street at Owen Street (near 84)	ConstableSt at Owen (84)	-41.31299751	174.7847375	2	0	
9959	9959	Wainuiomata High School - Parkway (opposite)	WainuiomataHighSch-Pkway (opp)	-41.25153206	174.9373833	5	0	
0003	0003	Fare Zone Boundary 11/12 - Tauherenikau River Bridge (SH2)	Fare Zone Boundary 11/12	-41.11841239	175.3749811	12/11	0	
1242	1242	Golf Road (near 58)	GolfRd (58)	-40.8876945	174.9866684	9	0	
2776	2776	Omapere Street at Adventure Drive	OmapereSt at Adventure	-41.12187044	174.8819738	5	0	
2768	2768	Discovery Drive at Spinnaker Drive (near 4)	DiscoveryDr at Spinnaker (4)	-41.11155495	174.8888383	6	0	
7912	7912	Taranaki Street at Abel Smith Street	TaranakiSt at AbelSmth	-41.29718895	174.7760654	1	0	
8276	8276	Waddington Drive at Collett Street (near 172)	WaddingtonDr at Collett (172)	-41.20611214	174.9547674	5	0	
4117	4117	Grosvenor Terrace opposite Orchard Street	GrosvenorTce opp Orchard	-41.26722742	174.7797894	2	0	
3929	3929	SDA School - Raiha Street (opposite)	SDASch-RaihaSt (opp)	-41.14831528	174.8324567	5	0	
6088	6088	Ira Street at Otaki Street	IraSt at Otaki	-41.32108693	174.8203238	3	0	
8062	8062	Maungaraki Road at Oakleigh Street (near 57)	MaungarakiRd at Oakleigh (57)	-41.2028886	174.8778671	4	0	
8627	8627	Plateau Road (near 232)	PlateauRd (232)	-41.09708942	175.1458434	8	0	
1812	1812	Fitzherbert Street at Birdwood Street	FitzherbertSt at Birdwood	-41.11776322	175.328068	11	0	
6156	6156	The Esplanade (near 354)	Esplanade (354)	-41.34794813	174.7670457	3	0	
3610	3610	Newlands Shops - Bracken Road	NewlandsShops-BrackenRd	-41.22267889	174.8234369	3	0	
1001	1001	Paraparaumu Station - Stop B	ParaparaumuStn-B	-40.9166498	175.0067516	9	0	
8699	8699	Gillespies Road (Edmund Lomas Grove) (school stop)	GillespiesRd (EdmundLomasGrv) (sch)	-41.09115578	175.1063554	7	0	
5460	5460	Station Road (near 7)	StationRd (7)	-41.24215939	174.7931904	3	0	
6784	6784	Aro Street at Epuni Street	AroSt at Epuni	-41.29535701	174.7663418	1	0	
6011	6011	Wellington College (school grounds)	WgtnColl (sch grds)	-41.303073	174.782552	1/2	0	
8552	8552	Shakespeare Avenue (near 25)	ShakespeareAve (25)	-41.12325552	175.0474796	7	0	
7343	7343	Coutts Street at Rongotai College (school stop)	CouttsSt at RongotaiColl (sch)	-41.32173654	174.8019421	3	0	
4502	4502	Humphries Street at Cotter Street	HumphriesSt at Cotter	-41.08547679	175.4507024	12	0	
7034	7034	Broadway opposite Crawford Green	Broadway opp Crawford	-41.32526068	174.8145042	3	0	
1716	1716	Freemans Road at Te Manuao Road	FreemansRd at TeManuao	-40.75936427	175.1700119	13	0	
8356	8356	Hill Road (near 84)	HillRd (84)	-41.18632961	174.9206748	5	0	
4927	4927	Pembroke Road (near 72)	PembrokeRd (72)	-41.27636646	174.7595015	2	0	
5412	5412	Punjab Street at Cockayne Road	PunjabSt at Cockayne	-41.25209739	174.7854656	3	0	
0004	0004	Fare Zone Boundary 12/13 Waiohine River Bridge (SH2)	Fare Zone Boundary 12/13	-41.05871002	175.4947512	12/13	0	
1899	1899	Upper Plain Road at Nash Place	UpperPlainRd at Nash	-40.94362282	175.6340802	14	0	
3200	3200	Middleton Road (near 25)	MiddletonRd (25)	-41.21913073	174.8085462	3	0	
8021	8021	Waione Street (near 308)	WaioneSt (308)	-41.23217825	174.8933811	4	0	
8862	8862	Muritai Road near Makaro Street	MuritaiRd at Makaro	-41.292134	174.897291	6	0	
6264	6264	Nevay Road (near 170)	NevayRd (170)	-41.29987372	174.8289304	3	0	
9963	9963	Wellington Road at Dover Road (near 83)	WgtnRd at Dover (83)	-41.24951274	174.9449618	5	0	
9363	9363	Stokes Valley Road (near 95)	StokesVlyRd (95)	-41.16625469	174.984692	6	0	
9070	9070	Pekanga Road at Taka Grove	PekangaRd at Taka	-41.20448631	174.8903163	4	0	
1741	1741	Waerenga Road (near 70)	WaerengaRd (70)	-40.75763841	175.1440155	13	0	
1250	1250	Golf Road at George Street (near 29)	GolfRd at George (29)	-40.88972419	174.9838805	9	0	
5012	5012	Lambton Central - Stop A	LambtonCtrl-A	-41.28260336	174.7756698	1	0	
5469	5469	Burma Road at Fraser Avenue	BurmaRd at Fraser	-41.23676735	174.7981739	3	0	
7772	7772	Mitchell Street opposite Virginia Grove	MitchellSt opp Virginia	-41.31278631	174.7574942	2	0	
9850	9850	Muritai School - Oroua Street	MuritaiSch-OrouaSt	-41.29139567	174.8964065	6	0	
9113	9113	Queens Drive opposite Riddiford Gardens	QueensDr opp RiddifordGdns	-41.21143575	174.9004164	4	0	
2954	2954	Titahi Bay School - Kura Street	TitahiBaySch-KuraSt	-41.11137749	174.8385747	5	0	
3206	3206	Middleton Road at Churton Drive	MiddletonRd at Churton	-41.2139538	174.8112663	3	0	
7327	7327	Onepu Road at Cruickshank Street	OnepuRd at Cruickshank	-41.32075882	174.7953439	3	0	
4324	4324	Marsden Village - Karori Road	MarsdenVlg-KaroriRd	-41.28229753	174.7460675	3	0	
5503	5503	Lambton Quay - Old Govt Buildings (school stop)	LambtonQy-OldGovt (sch)	-41.27925266	174.7778061	1	0	
4419	4419	Khandallah Village - Stop A	KhandallahVlg-A	-41.24732664	174.7910641	3	0	
4362	4362	Parklands Drive (near 18)	ParklandsDr (18)	-41.29065352	174.7260888	3	0	
1879	1879	Titoki Street (opposite 51)	TitokiSt (opp 51)	-40.93556525	175.6749731	14	0	
3959	3959	Tawa Intermediate School and College (school stop)	TawaIntSch and Coll (sch)	-41.16408154	174.8308663	4	0	
6335	6335	Sutherland Road at Rua Street	SutherlandRd at Rua	-41.33137272	174.790497	3	0	
2846	2846	Dimock Street opposite Herewini Street	DimockSt opp Herewini	-41.09897243	174.8426343	5	0	
1908	1908	Revans Street at Waite Street	RevansSt at Waite	-41.12199801	175.3315224	11	0	
9157	9157	Ludlam Crescent at Wai-iti Crescent (near 41)	LudlamCres at Wai-iti (41)	-41.22051028	174.9072403	4	0	
5328	5328	Karori Road at St Teresa's School	KaroriRd at StTeresa's	-41.28556869	174.7347914	3	0	
3917	3917	Jamaica Drive at Grenada North Park (school stop)	JamaicaDr at GrenadaNPk (sch)	-41.186237	174.836814	4	0	
2789	2789	Aotea Drive at Kahurangi Heights	AoteaDr at KahurangiHts	-41.12753403	174.8645186	5	0	
2320	2320	Sievers Grove (near 174)	SieversGrv (174)	-41.14891797	174.8622645	5	0	
2516	2516	Kahu Road (near 51)	KahuRd (51)	-41.107474	174.874853	6	0	
7517	7517	Oriental Parade (near 260)	OrientalPde (260)	-41.29112111	174.7956056	1	0	
WOBU2	WOBU2	Woburn Station	WoburnStn	-41.22083263	174.9111931	4	0	WOBU	
3530	3530	Somes Crescent at Sunhaven Drive (near 23)	SomesCres at Sunhaven (23)	-41.2265154	174.8314177	3	0	
3460	3460	Paparangi Shops (opposite)	PaparangiShops (opp)	-41.21384667	174.8180624	3	0	
6526	6526	Grafton Road (near 97)	GraftonRd (97)	-41.29374564	174.8005742	2	0	
9553	9553	McLeod Street opposite Davis Crescent	McLeodSt opp Davis	-41.12083866	175.0516925	7	0	
5349	5349	Montgomery Ave opposite Alanbrooke Pl	MontgomeryAve opp Alanbrooke	-41.27959918	174.7306522	3	0	
1970	1970	Masterton Primary School (opposite)	MastertonPrimarySch (opp)	-40.9614028	175.6442928	14	0	
5934	5934	Mairangi Road at Rutland Way (near 92)	MairangiRd at Rutland (92)	-41.26616183	174.7671064	2	0	
5127	5127	Wadestown School - Wilton Road	WadestownSch-WiltonRd	-41.26249236	174.765575	2	0	
9052	9052	Dowse Drive at Magnolia Grove (near 23)	DowseDr at Magnolia (23)	-41.21538923	174.8790597	4	0	
6067	6067	Karaka Bay Road (near 321)	KarakaBayRd (321)	-41.3082987	174.831555	3	0	
1873	1873	Kitchener Street at Totara Street	KitchenerSt at Totara	-40.93866236	175.6773548	14	0	
CROF	CROF	Crofton Downs Station	CroftonDownsStn	-41.25504083	174.7664988	3	0	
1489	1489	Menin Road opposite Miro Road	MeninRd at Miro	-40.92801732	174.9820556	9	0	
5136	5136	Churchill Drive at Wilton Bush Road	ChurchillDr at WiltonBush	-41.26347053	174.7632011	2/3	0	
5945	5945	Highbury Road opposite Moana Road	HighburyRd opp Moana	-41.29198636	174.7570551	2	0	
2584	2584	Lauderdale Road (near 12)	LauderdaleRd (12)	-41.11076989	174.8707134	5	0	
1244	1244	Golf Road at George Street	GolfRd at George	-40.88953596	174.9843496	9	0	
4934	4934	Mairangi Road at Rutland Way (near 107)	MairangiRd at Rutland (107)	-41.26569016	174.7667921	2	0	
9405	9405	Jocelyn Crescent at Pinehaven Road	JocelynCres at Pinehaven	-41.16348326	175.0136902	6	0	
2528	2528	Postgate Drive at Staithes Drive North	PostgateDr at StaithesDrN	-41.11157795	174.8819314	6	0	
4394	4394	Beauchamp Street at Henderson Street	BeauchampSt at Henderson	-41.28919352	174.739306	3	0	
4456	4456	Mysore Street (near 14)	MysoreSt (14)	-41.25042003	174.7832716	3	0	
2874	2874	Takapuwahia Drive at Kotuku Street	TakapuwahiaDr at Kotuku	-41.12758297	174.830029	5	0	
7301	7301	Strathmore Avenue (near 34)	StrathmoreAve (34)	-41.326425	174.820418	3	0	
6920	6920	Riddiford Street near Donald Mclean Street	RiddifordSt at DonaldMclean	-41.31576512	174.7805122	2	0	
1162	1162	Te Kupe Road at Watson Drive	TeKupeRd at Watson	-40.88029154	174.9928556	9	0	
3822	3822	Kanpur Road (near 59)	KanpurRd (59)	-41.23758621	174.7918721	3	0	
1534	1534	Te Moana Road at Lavinia Grove	TeMoanaRd at Lavinia	-40.86640767	175.0296966	10	0	
6224	6224	Kilbirnie - Stop A	Kilbirnie-A	-41.31717	174.79567	3/2	0	
9958	9958	Meremere Street (near 2)	MeremereSt (2)	-41.25057588	174.9353262	5	0	
9909	9909	Main Road at Stanley Street (near 93)	MainRd at Stanley (93)	-41.26910117	174.9530643	5	0	
1840	1840	High Street at Judds Road	HighSt at Judds	-40.96199819	175.6261374	14	0	
1000	1000	Paraparaumu Station - Stop A	ParaparaumuStn-A	-40.91700385	175.006635	9	0	
1177	1177	Paraparaumu College (School Stop)	ParaparaumuColl (Sch Stp)	-40.889356	175.004571	9	0	
1736	1736	Aotaki Street at Kirk Street	AotakiSt at Kirk	-40.7571792	175.1374834	13	0	
2501	2501	Papakowhai Road at Romesdale Road (hail and ride) (school stop)	PapakowhaiRd at Romesdale (h/r) (sch)	-41.114176	174.86087	5	0	
2532	2532	Leeward Drive at Ensign Lane	LeewardDr at Ensign	-41.11191472	174.8833701	6	0	
4405	4405	Ngaio Gorge Road (near 67)	NgaioGorgeRd (67)	-41.25658348	174.7754447	3	0	
4431	4431	Homebush Road (near 1)	HomebushRd (1)	-41.25080374	174.8048844	3	0	
8281	8281	Rata Street (near 241)	RataSt (241)	-41.20264576	174.9679022	5	0	
6528	6528	Grafton Road (near 171)	GraftonRd (171)	-41.29678808	174.8018522	2	0	
6792	6792	Ohiro Road (near 329)	OhiroRd (329)	-41.31254051	174.7617883	2	0	
2860	2860	Gloaming Hill Road (near 34)	GloamingHillRd (34)	-41.11131892	174.8478625	5	0	
7785	7785	Aro Street opposite Durham Street	AroSt opp Durham	-41.29493422	174.7636015	1	0	
3262	3262	Ngauranga - Hutt Road (opposite motorway)	Ngauranga-HuttRd  (opp motorway)	-41.24752696	174.8127902	3	0	
7788	7788	Raroa Road opposite Harrold Street Walkway	RaroaRd opp HarroldWlkway	-41.291753	174.75967	2	0	
9954	9954	Mohaka Street (near 17)	MohakaSt (17)	-41.24998378	174.9330411	5	0	
8350	8350	Park Road at Chilean Embassy	ParkRd at ChileanEmb	-41.18876833	174.9202692	5	0	
4120	4120	Lennel Road at Sefton Street	LennelRd at Sefton	-41.26409097	174.7787493	2	0	
6914	6914	Massey University - Wallace Street	MasseyUni-WallaceSt	-41.3022585	174.7744113	1/2	0	
9739	9739	Marine Drive (near 139) (school stop)	MarineDr (139) (sch)	-41.254562	174.908692	5	0	
2024	2024	Parumoana Street (near 16)	ParumoanaSt (16)	-41.13152418	174.8404477	5	0	
3829	3829	John Sims Drive (near 45)	JohnSimsDr (45)	-41.23333782	174.7954746	3	0	
8693	8693	Akatarawa Road opposite Black Beech Street	AkatarawaRd opp BlackBeechSt	-41.09528125	175.095427	7	0	
3700	3700	Horokiwi Road at Pinkerton Grove	HorokiwiRd at Pinkerton	-41.22270841	174.8272553	3	0	
3612	3612	Bracken Road at Carluke Street	BrackenRd at Carluke	-41.21799648	174.8205063	3	0	
9997	9997	Queens Wharf	QueensWhrf	-41.28340147	174.7791615	1	0	
7417	7417	Adelaide Road at Hall Street (near 254)	AdelaideRd at Hall (254)	-41.31032657	174.7768999	2	0	
6043	6043	Inglis Street at Burnham Street (near 91)	InglisSt at Burnham (91)	-41.32604247	174.831574	3	0	
9366	9366	Stokes Valley Shops - Bowers Street	StokesVlyShops-BowersSt	-41.17341012	174.9814508	6	0	
2504	2504	Tweed Road at Ness Grove (near 52)	TweedRd at Ness (52)	-41.114724	174.863756	5	0	
9748	9748	Wainuiomata Road at Gracefield Road	WainuiomataRd at Gracefield	-41.23091695	174.9203745	4	0	
8064	8064	Dowse Drive at Oakleigh Street	DowseDr at Oakleigh	-41.2018959	174.8817553	4	0	
1106	1106	Arawhata Road (near 75)	ArawhataRd (75)	-40.90605258	175.0084697	9	0	
7713	7713	Brooklyn Road near Central Park Entrance	Brooklyn Rd near CentralPkEntr	-41.29838519	174.7685734	1	0	
1861	1861	Te Ore Ore Road (near 15)	TeOreOreRd (15)	-40.94554346	175.6719311	14	0	
5488	5488	Hutt Road at Aotea Quay (rail side)	HuttRd at Aotea (rail side)	-41.26408494	174.7849566	1/2	0	
9736	9736	Seaview Road (near 105)	SeaviewRd (105)	-41.2486154	174.9102218	4	0	
3412	3412	Bracken Road at Trebann Street	BrackenRd at Trebann	-41.22089144	174.8225522	3	0	
1421	1421	Matai Road (near 131)	MataiRd (131)	-40.92733366	174.9851277	9	0	
6240	6240	Darlington Road at Camperdown Road	DarlingtonRd at Camperdown	-41.30740322	174.8255573	3	0	
3972	3972	Middleton Road opposite Glenside Road	MiddletonRd oppGlenside	-41.20610959	174.8117655	3	0	
7237	7237	Rotherham Terrace (near 80)	RotherhamTce (80)	-41.31267428	174.8225983	3	0	
7038	7038	Broadway at Cavendish Square	Broadway at Cavendish	-41.32450923	174.8260348	3	0	
2126	2126	Warspite Avenue at Penguin Grove (near 335)	WarspiteAve at Penguin (335)	-41.12465396	174.8809947	5	0	
1070	1070	Ruapehu Street opposite Kaimanawa Street	RuapehuSt opp Kaimanawa	-40.92122182	175.0115416	9	0	
7238	7238	Darlington Road opposite Puriri Street	DarlingtonRd opp Puriri	-41.31184318	174.8238893	3	0	
6337	6337	Queens Drive (opposite 302)	QueensDr (opp 302)	-41.33523484	174.7912003	3	0	
8305	8305	Holborn Drive opposite Harold Grove	HolbornDr opp Harold	-41.16244132	174.9802859	6	0	
2958	2958	Te Pene Avenue at Piko Street (near 125)	TePeneAve at Piko (125)	-41.11660137	174.8386014	5	0	
2844	2844	Thornley Street at Dimock Street	ThornleySt at Dimock	-41.09992223	174.8395649	5	0	
8580	8580	Upper Hutt Station - Stop B	UpperHuttStn-B	-41.12583993	175.0709874	7	0	
1756	1756	Ngaio Street at Manuka Street	NgaioSt at Manuka	-40.73963633	175.1216445	13	0	
3222	3222	Amesbury Drive at Claverton Grove	AmesburyDr at Claverton	-41.20021017	174.8031355	3	0	
4365	4365	Woodhouse Avenue (near 4)	WoodhouseAve (4)	-41.28888499	174.7238926	3	0	
8259	8259	Naenae Road at Horlor Street (near 116)	NaenaeRd at Horlor (116)	-41.20250059	174.9446421	5	0	
9003	9003	Jackson Street at Petone Avenue	JacksonSt at Petone	-41.2238476	174.8740527	4	0	
6527	6527	Grafton Road (near 123)	GraftonRd (123)	-41.29473227	174.8008402	2	0	
6568	6568	Thane Road at Robieson Street (near 17)	ThaneRd at Robieson (17)	-41.29493848	174.7991738	2	0	
8328	8328	The Glen - Horoeka Street at Glen Road (near 5)	TheGlen-HoroekaSt at Glen (5)	-41.17088703	174.9867388	6	0	
1380	1380	Raumati Road at Matai Road (opposite 68)	RaumatiRd at Matai (opp 68)	-40.92115685	174.989333	9	0	
7546	7546	Greta Point (near 310)	GretaPt (310)	-41.30233646	174.804155	2	0	
8093	8093	London Road at George Gee Drive	LondonRd at GeorgeGee	-41.21431405	174.8731841	4	0	
6136	6136	Humber Street at The Parade (school stop)	HumberSt at Parade (sch)	-41.34050473	174.7707884	3	0	
7285	7285	Seatoun Heights Road (near 1)	SeatounHtsRd (1)	-41.32323931	174.8265967	3	0	
2622	2622	Pope Street (near 3) (hail and ride) (school stop)	PopeSt (3) (h/r) (sch)	-41.08730666	174.8741788	6	0	
3604	3604	Newlands Road at Black Rock Road	NewlandsRd at BlackRock	-41.22843021	174.8185858	3	0	
9337	9337	Kingsley Street (near 26)	KingsleySt (26)	-41.15628851	174.987132	6	0	
CLIF	CLIF	Clifton - Cable Car Station	Clifton-CableCarStn	-41.28451384	174.7730767	1	0	
5404	5404	Ngaio Gorge Road (opposite 105)	NgaioGorgeRd (opp 105)	-41.25626531	174.7780594	2/3	0	
9845	9845	Marine Drive opposite Days Bay Wharf	MarineDr opp DaysBayWhrf	-41.28086097	174.9070865	6	0	
3070	3070	Erris Street at Ironside Road	ErrisSt at Ironside	-41.21882257	174.7994715	3	0	
7569	7569	Alexandra Road at Lookout Road	AlexandraRd at Lookout	-41.29575997	174.7984798	2	0	
4134	4134	Otari School - Otari-Wilton's Bush	OtariSch-Otari-WiltonsBush	-41.26820968	174.7568948	2	0	
3908	3908	Willowbank Road (near 10)	WillowbankRd (10)	-41.18837357	174.8283271	4	0	
6727	6727	The Ridgeway (near 111)	Ridgeway (111)	-41.31679402	174.7650407	2	0	
6770	6770	Mitchell Street (near 129)	MitchellSt (129)	-41.30826267	174.7588061	2	0	
9545	9545	Hikurangi Street at Fergusson Intermediate School	HikurangiStatFergussonintermediate	-41.12738549	175.0380782	7	0	
1130	1130	Hadfield Place (near 4)	HadfieldPl (4)	-40.8801194	174.9975976	9	0	
2540	2540	Spinnaker Drive at Leeward Drive (near 17)	SpinnakerDr at Leeward (17)	-41.10596909	174.8889163	6	0	
6098	6098	Ahuriri Street (near 55)	AhuririSt (55)	-41.33655597	174.8160938	3	0	
4345	4345	Victory Avenue at Tobruk Street (near 14)	VictoryAve at Tobruk (14)	-41.28142318	174.7289501	3	0	
7040	7040	Seatoun Village - Dundas Street	SeatounVlg-DundasSt	-41.32269266	174.830777	3	0	
9159	9159	Hutt Valley High School - Woburn Road	HVHS-WoburnRd	-41.21572959	174.9022107	4	0	
1922	1922	Greytown - Main Street (near 73)	Greytown-MainSt (73)	-41.07929591	175.4617807	12	0	
2728	2728	James Cook Drive at Discovery Drive	JamesCookDr at Discovery	-41.1159389	174.901589	6	0	
6732	6732	Halifax Street opposite Breton Grove	HalifaxSt opp Breton	-41.32255664	174.7664789	2	0	
6570	6570	Alexandra Road (near 25)	AlexandraRd (25)	-41.29631882	174.7973009	2	0	
4333	4333	Marsden School - Vera Street (school stop)	MarsdenSch-VeraSt (sch)	-41.285701	174.745962	3	0	
6935	6935	View Road at Hungerford Road (near 97)	ViewRd at Hungerford (97)	-41.33849462	174.7900945	3	0	
3932	3932	Kenepuru Drive at Ambulance Drive	KenepuruDr at Ambulance	-41.14856	174.83817	5	0	
9218	9218	Major Drive at Invercargill Drive	MajorDr at Invercargill	-41.17325206	174.9378162	5	0	
7958	7958	Melrose Road (near 41)	MelroseRd (41)	-41.33666268	174.7791928	3	0	
6286	6286	Seatoun Heights Road at Tio Tio Road	SeatounHtsRd at Tiotio	-41.32317226	174.8270749	3	0	
8070	8070	Pekanga Road at Pokohiwi Road	PekangaSt at Pokohiwi	-41.20503628	174.8897358	4	0	
3962	3962	Main Road Tawa opposite Sunrise Boulevard	MainRdTawa opp Sunrise	-41.18356281	174.8249741	4	0	
2779	2779	Aotea Drive at Nelson Avenue	AoteaDr at Nelson	-41.12789609	174.8644097	5	0	
6764	6764	Apuka Street at Mitchell Street	ApukaSt at Mitchell	-41.30220476	174.7603155	2	0	
6038	6038	Broadway opposite Cavendish Square	Broadway opp Cavendish	-41.32433106	174.8259103	3	0	
1264	1264	Gray Avenue at Callender Terrace (near 36)	GrayAve at Callender (36)	-40.89244143	174.9934577	9	0	
8254	8254	High Street at Petherick Street	HighSt at Petherick	-41.17343606	174.9641665	5	0	
8120	8120	St Oran's College (school stop)	StOransColl (sch)	-41.20406461	174.9158266	4	0	
1895	1895	Oak Street at Colville Street	OakSt at Colville	-40.93929294	175.6383028	14	0	
1134	1134	Te Kupe Road opposite Watson Drive	TeKupeRd opp Watson	-40.88037747	174.9930956	9	0	
8101	8101	Kings Crescent at Pretoria Street (near 84)	KingsCres at Pretoria (84)	-41.20796757	174.9140322	4	0	
6723	6723	Washington Avenue at Connaught Terrace (near 151)	WashingtonAve at Connaught (151)	-41.3097754	174.7658948	2	0	
6924	6924	Wellington Zoo - Stop B	WgtnZoo-B	-41.31913091	174.7841881	2	0	
9902	9902	Wainuiomata Road at Rimu Street	WainuiomataRd at Rimu	-41.25700589	174.9332482	5	0	
8310	8310	Holborn Drive (near 172)	HolbornDr (172)	-41.16946336	174.9752526	6	0	
5121	5121	Wadestown Library - Lennel Road	WadestownLib-LennelRd	-41.26250167	174.7766768	2	0	
3435	3435	Mark Avenue (near 206)	MarkAve (206)	-41.203663	174.826158	3	0	
2785	2785	Frances Brown Avenue at Queen Charlotte Drive	FrancesBrownAve at QueenCharlotte	-41.12685645	174.8562798	5	0	
3970	3970	Middleton Road at Westchester Drive	MiddletonRd at Westchester	-41.20404994	174.8167178	3	0	
2788	2788	Aotea Drive opposite Kaimai Place	AoteaDr opp Kaimai	-41.12876031	174.8610986	5	0	
3054	3054	Truscott Avenue at Elliott Street	TruscottAve at Elliott	-41.22737887	174.7937408	3	0	
1487	1487	Menin Road (near 46)	MeninRd (46)	-40.927819	174.9843072	9	0	
3926	3926	SDA School - Raiha Street	SDASch-RaihaSt	-41.14867352	174.8325858	5	0	
2878	2878	Kotuku Street (near 16)	KotukuSt (16)	-41.13258134	174.8291534	5	0	
1570	1570	Te Moana Road (near 311)	TeMoanaRd (311)	-40.87740124	175.0447479	10	0	
5341	5341	Marshall Street opposite Ranelagh Street	MarshallSt opp Ranelagh	-41.28603478	174.7277583	3	0	
4435	4435	Simla Crescent Station (opposite)	SimlaCresStn (opp)	-41.247089	174.784399	3	0	
9323	9323	Tawhai School - Glen Road	TawhaiSch-GlenRd	-41.17347515	174.9881283	6	0	
1536	1536	Waimea Road (near 68)	WaimeaRd (68)	-40.86638855	175.0256617	10	0	
9551	9551	Shakespeare Avenue (near 54)	ShakespeareAve (54)	-41.12430922	175.0439389	7	0	
1963	1963	Masterton Intermediate School (opposite) (school stop)	MastertonIntSch (opp) (sch)	-40.957437	175.640763	14	0	
8604	8604	Gemstone Drive at Jasper Grove	GemstoneDr at Jasper	-41.09317808	175.1070281	7	0	
1104	1104	Arawhata Road at Greenwood Place (near 7)	ArawhataRd at Greenwood (7)	-40.90976519	175.0021706	9	0	
2713	2713	Discovery Drive (near 27)	DiscoveryDr (27)	-41.11281539	174.8888744	6	0	
9141	9141	Tirohanga Road near Onehuka Road (hail and ride) (school stop)	TirohangaRd nr Onehuka (h/r) (sch)	-41.199907	174.908208	4	0	
3702	3702	Horokiwi Road (near 65)	HorokiwiRd (65)	-41.22157497	174.830564	3	0	
7256	7256	Kaikoura Street at Akaroa Drive (near 2)	KaikouraSt at Akaroa (2)	-41.30725599	174.8177888	3	0	
9533	9533	Lane Street (near 5)	LaneSt (5)	-41.13337022	175.0611372	7	0	
1272	1272	Kapiti Road at Hurley Road	KapitiRd at Hurley	-40.89741363	174.9871967	9	0	
9303	9303	Holborn Drive at Stokes Valley Road (near 3)	HolbornDr at StokesVly (3)	-41.16414716	174.983438	6	0	
1110	1110	Mazengarb Road at Makarini Street	MazengarbRd at Makarini	-40.90064154	175.0140043	9	0	
7547	7547	Evans Bay Parade opposite Greta Point Wharf	EvansBayPde opp GretaPtWhrf	-41.30352186	174.8032321	2	0	
6246	6246	Miramar North Road (near 56)	MiramarNRd (56)	-41.30631414	174.8203905	3	0	
5381	5381	Birdwood Street opposite Braithwaite Street	BirdwoodSt opp Braithwaite	-41.28385942	174.7505817	3	0	
5346	5346	Victory Avenue at Montgomery Avenue	VictoryAve at Montgomery	-41.28329601	174.7301936	3	0	
2344	2344	Champion Street (near 208)	ChampionSt (208)	-41.14033021	174.8641662	5	0	
NGAU	NGAU	Ngauranga Station	NgaurangaStn	-41.249038	174.813013	3	0	
2830	2830	Downes Street at Dimock Street	DownesSt at Dimock	-41.10587838	174.8444946	5	0	
5433	5433	Onslow Alms - Onslow Road (opposite)	OnslowAlms-OnslowRd (opp)	-41.25310691	174.8016059	3	0	
2120	2120	Warspite Avenue (near 165)	WarspiteAve (165)	-41.13395251	174.8797116	5	0	
1352	1352	Ocean Road at Bluegum Road (near 33)	OceanRd at Bluegum (33)	-40.89653929	174.9820815	9	0	
8607	8607	Topaz Street at Pearl Grove	TopazSt at Pearl	-41.0962525	175.1112937	7	0	
7012	7012	Cambridge Terrace at Vivian Street	CambridgeTce at Vivian	-41.29676236	174.7821092	1	0	
5330	5330	Karori Road opposite Tringham Street	KaroriRd opp Tringham	-41.28687483	174.7288282	3	0	
8363	8363	Stokes Valley Road (near 78)	StokesVlyRd (78)	-41.16624269	174.984453	6	0	
2144	2144	Warspite Avenue at Conclusion Street	WarspiteAve at Conclusion	-41.12209549	174.8777055	5	0	
5016	5016	Wellington Station - Stop D	WgtnStn-D	-41.27841016	174.7788993	1	0	
7709	7709	Willis Street (near 190)	WillisSt (190)	-41.291671	174.773208	1	0	
9875	9875	Viewmont Drive (near 89) (school stop)	ViewmontDr (89) (sch)	-41.19968	174.90066	4	0	
5925	5925	Northland Road at Pembroke Road	NorthlandRd at Pembroke	-41.27939846	174.7614934	2	0	
1734	1734	Aotaki Street at Warenga Road	AotakiSt at Warenga	-40.75580252	175.1388608	13	0	
6155	6155	The Esplanade (near 432)	Esplanade (432)	-41.34800861	174.7631029	3	0	
2142	2142	Ascot Park - Warspite Avenue	AscotPk-WarspiteAve	-41.12209075	174.8724643	5	0	
5422	5422	Ranui Crescent at Cashmere Avenue	RanuiCres at Cashmere	-41.24696916	174.7966635	3	0	
8213	8213	Major Drive at Taieri Crescent (near 84)	MajorDr at Taieri (84)	-41.18310121	174.9305954	5	0	
9306	9306	Holborn Drive (near 75)	HolbornDr (75)	-41.16361056	174.9784952	6	0	
1962	1962	York Street at Plunket Street	YorkSt at Plunket	-40.95694372	175.6344912	14	0	
1854	1854	Church Street at Keaton Street	ChurchSt at Keaton	-40.954483	175.6670644	14	0	
2106	2106	Mungavin Avenue (near 145)	MungavinAve (145)	-41.14177502	174.8583687	5	0	
9098	9098	Fitzherbert Street at The Esplanade	FitzherbertSt at Esp	-41.22682831	174.8735413	4	0	
1221	1221	Aero Club - Kapiti Road	AeroClub-KapitiRd	-40.902003	174.9926764	9	0	
1630	1630	Ngaio Road (opposite 31)	NgaioRd (opp 31)	-40.8753993	175.0617802	10	0	
1737	1737	Kirk Street (near 42)	KirkSt (47)	-40.75866134	175.1396889	13	0	
1203	1203	Our Lady of Kapiti School (school grounds)	OLOKS (sch grds)	-40.907065	174.996571	9	0	
PORI1	PORI1	Porirua Station	PoriruaStn	-41.13757469	174.8434782	5	0	PORI	
1418	1418	Wellington Road (near 90)	WgtnRd (90)	-40.98231545	174.9566242	8	0	
1232	1232	Gray Avenue at Martin Road (near 83)	GrayAve at Martin (83)	-40.88995315	174.9967065	9	0	
7752	7752	Balfour Street (near 83)	BalfourSt (83)	-41.31640679	174.7681048	2	0	
9066	9066	Miromiro Road at Stratton Street	MiromiroRd at StrattonSt	-41.20049362	174.8866237	4	0	
5139	5139	Cardinal McKeefry School - Wilton Road (opposite)	CardinalMcKeefrySch-WiltonRd (opp)	-41.27524886	174.7560091	2	0	
8046	8046	Hutt Road (near 142)	HuttRd (142)	-41.22037787	174.8769359	4	0	
8295	8295	Eastern Hutt Road (near 38)	EasternHuttRd (38)	-41.18680138	174.9608521	5	0	
8284	8284	Rata Street School (near 75)	RataStSch (75)	-41.19975559	174.9577981	5	0	
8273	8273	Waddington Drive opposite Burke Grove (near 64)	WaddingtonDr opp Burke (64)	-41.20581952	174.9454559	5	0	
7258	7258	Kaikoura Street at Tamahine Street	KaikouraSt at Tamahine	-41.30426983	174.8186614	3	0	
7137	7137	Severn Street at Moselle Street (school stop)	SevernSt at Moselle (sch)	-41.34082259	174.7676896	3	0	
7290	7290	Tannadyce Street (near 87)	TannadyceSt (87)	-41.3275684	174.8262397	3	0	
9270	9270	Waiwhetu Road at Naenae Road (near 371)	WaiwhetuRd at Naenae (371)	-41.20572022	174.9353154	5	0	
3024	3024	Erris Street at Cortina Avenue	ErrisSt at Cortina	-41.21826121	174.7950424	3	0	
3911	3911	Main Road Tawa at St Francis Xavier School	MainRdTawa at StFrXSch	-41.1792393	174.8249733	4	0	
3930	3930	Kenepuru Drive at Raiha Street	KenepuruDr at Raiha	-41.14882894	174.8341393	5	0	
8977	8977	Norfolk Street (near 28)	NorfolkSt (28)	-41.24243621	174.9479739	5	0	
7782	7782	Aro Street at Willis Street	AroSt at Willis	-41.29601676	174.7703009	1	0	
5431	5431	Homebush Road at Onslow Road	HomebushRd at Onslow	-41.25098567	174.80477	3	0	
2924	2924	Pikarere Street at Rakihau Place (near 73)	PikarereSt at Rakihau (73)	-41.11290421	174.8275411	5	0	
6796	6796	Happy Valley Road (opposite 281)	HappyVlyRd (opp 281)	-41.32955592	174.7576761	3	0	
3778	3778	Kenmore Street (near 65)	KenmoreSt (65)	-41.22568139	174.8272188	3	0	
MANA1	MANA1	Mana Station	ManaStn	-41.0952797	174.8682375	6	0	MANA	
3238	3238	Abilene Crescent at Trilids Lane	AbileneCres at Trilids	-41.20943699	174.8063707	3	0	
3919	3919	Jamaica Drive opposite Grenada North Park (school stop)	JamaicaDr opp GrenadaNPk (sch)	-41.186001	174.836402	4	0	
1917	1917	Tauherenikau - SH2 at Racecourse Road	Tauherenikau-SH2 at Moroa	-41.11855077	175.3767789	12	0	
1800	1800	Martinborough - Kitchener Street (near 11)	Martinborough-KitchenerSt (11)	-41.21735429	175.4583648	13	0	
9135	9135	Waterloo Road opposite Chilton St James School	WaterlooRd opp ChiltonStJamesSch	-41.20995217	174.9138515	4	0	
1936	1936	Carterton - Memorial Square	Carterton-MemorialSq	-41.02352926	175.5289191	13	0	
1905	1905	State Highway 53 at No 1 Line	SH53 at No1Line	-41.15025294	175.3681529	12	0	
7712	7712	Brooklyn Road opposite Nairn Street	BrooklynRd opp Nairn	-41.29719639	174.7697356	1	0	
7246	7246	Miramar North Road (near 57)	MiramarNRd (57)	-41.30649798	174.8201567	3	0	
7066	7066	Karaka Bay Road (opposite 275)	KarakaBayRd (275)	-41.31039222	174.8301801	3	0	
8417	8417	Pempsey Street at Gloucester Street (near 2)	PempseySt at Gloucester (2)	-41.14738808	175.017249	6	0	
1105	1105	Kapiti Health Centre	KapitiHealthCtr	-40.9103178	175.0074094	9	0	
1863	1863	Te Ore Ore Road at Colombo Road	TeOreOreRd at Colombo	-40.94728986	175.6781787	14	0	
9423	9423	Messines Avenue opposite Granville Street	MessinesAve opp GranvilleSt	-41.14071574	175.0330102	6	0	
1484	1484	Matai Road at William Avenue	MataiRd at William	-40.93023753	174.9850922	9	0	
9166	9166	Waterloo Road (near 259)	WaterlooRd (259)	-41.21244422	174.9264484	4	0	
8135	8135	Waterloo Road at Chilton St James	WaterlooRd at ChiltonStJames	-41.21004616	174.9136157	4	0	
3956	3956	Tawa Mall - Main Road (near 206)	TawaMall-MainRd (206)	-41.16978008	174.8250683	4	0	
1530	1530	Te Moana Road at Greenaway Road	TeMoanaRd at Greenaway	-40.87267414	175.0370079	10	0	
3518	3518	Kenmore Street (near 72)	KenmoreSt (72)	-41.22567661	174.8273441	3	0	
2740	2740	Navigation Drive (opposite 48)	NavigationDr (opp 48)	-41.11328579	174.9074181	6	0	
6959	6959	Melrose Road at Melbourne Road (near 6)	MelroseRd at Melbourne (6)	-41.33825183	174.7767028	3	0	
9692	9692	Akatarawa Road at Pokaka Street	AkatarawaRd at Pokaka	-41.09916945	175.094598	7	0	
FEAT	FEAT	Featherston Station	FeatherstonStn	-41.11345391	175.3297632	11	0	
4470	4470	Burma Road opposite Malvina Major	BurmaRd opp MalvinaMajor	-41.23303	174.7981	3	0	
9999	9999	Days Bay Wharf	DaysBayWharf	-41.28061856	174.9054078	6	0	
2178	2178	Mungavin Avenue (near 22)	MungavinAve (22)	-41.13937302	174.8509138	5	0	
9280	9280	Hay Street (Wesley Rata Village)	HaySt (WesleyRataVillage)	-41.20390001	174.9682976	5	0	
6255	6255	Akaroa Drive opposite Waiwera Crescent	AkaroaDr opp Waiwera	-41.30834352	174.817032	3	0	
5138	5138	Churchill Drive near Chartwell Drive	ChurchillDr nr Chartwell	-41.25745831	174.7652888	3	0	
7083	7083	Miramar Shops - Stop A	MiramarShops-A	-41.315824	174.814952	3	0	
1891	1891	Fraser Street at Ballance Street	FraserSt at Ballance	-40.94188105	175.6432759	14	0	
1148	1148	Paraparaumu Beach Shops - Stop A	ParaparaumuBchShops-A	-40.89346234	174.981262	9	0	
9556	9556	McLeod Street opposite Robertson Street	McLeodSt opp Robertson	-41.11706984	175.0609843	7	0	
6215	6215	Pirie Street at Bus Tunnel	PirieSt at BusTnl	-41.29898297	174.7881773	1/2	0	
1560	1560	Waikanae Beach - Rauparaha Street	WaikanaeBch-RauparahaSt	-40.8658842	175.0287313	10	0	
1907	1907	State Highway 53 at Boundary Road	SH53 at Boundary	-41.12452133	175.3358999	11	0	
8312	8312	Logie Street at Shaftsbury Grove	LogieSt at Shaftsbury	-41.17155848	174.9738851	6	0	
6291	6291	Tannadyce Street (near 62)	TannadyceSt (62)	-41.32831329	174.8247071	3	0	
8325	8325	The Glen - Tawhai Street (near 56)	TheGlen-TawhaiSt (56)	-41.17599317	174.993569	6	0	
3271	3271	Chorley Grove at Chisbury Street	ChorleyGrv at Chisbury	-41.21277272	174.8068407	3	0	
6236	6236	Park Road at Rotherham Terrace (near 91)	ParkRd at Rotherham (91)	-41.31186606	174.8196674	3	0	
2128	2128	Warspite Avenue (near 367)	WarspiteAve (367)	-41.12248206	174.879377	5	0	
8466	8466	Fergusson Drive opposite Barton Road	FergussonDr opp Barton	-41.13899717	175.0283105	6	0	
2576	2576	Kahu Road (near 132)	KahuRd (132)	-41.10865548	174.8788706	6	0	
3754	3754	Kentwood Drive (near 14)	KentwoodDr (14)	-41.21787414	174.8310573	3	0	
9071	9071	Pekanga Road at Christina Grove (near 10)	PekangaRd at Christina (10)	-41.20435515	174.8928171	4	0	
1952	1952	Cole Street at Kummer Crescent	ColeSt at Kummer	-40.94543969	175.6451997	14	0	
7755	7755	Farnham Street at Balfour Street	FarnhamSt at Balfour	-41.31984131	174.7689455	2	0	
2538	2538	Leeward Drive at Bosun Terrace (near 22)	LeewardDr at Bosun (22)	-41.10673226	174.8863183	6	0	
8856	8856	Muritai Road at Nikau Street (near 416)	MuritaiRd at Nikau (416)	-41.30382974	174.890675	6	0	
8242	8242	Molesworth Street at High Street (near 144)	MolesworthSt at High (144)	-41.16936453	174.9652368	5	0	
2518	2518	Kahu Road (near 61)	KahuRd (61)	-41.106775	174.876333	6	0	
4368	4368	Hazlewood Avenue (near 62)	HazlewoodAve (62)	-41.29698832	174.724106	3	0	
1240	1240	Golf Road opposite Whyte Street	GolfRd opp Whyte	-40.88574864	174.9898148	9	0	
6787	6787	Raroa Road at Mt Pleasant Road	RaroaRd at MtPleasant	-41.293849	174.757618	2	0	
1714	1714	Te Manuao Road (near 24)	TeManuaoRd (24)	-40.75789844	175.1665289	13	0	
1275	1275	Guildford Drive (near 61)	GuildfordDr (61)	-40.89806144	175.0018175	9	0	
8334	8334	Lord Street (near 72)	LordSt (72)	-41.15935143	174.9871054	6	0	
3774	3774	Link Road (near 54)	LinkRd (54)	-41.22816713	174.8238281	3	0	
8516	8516	Kirton Drive (near 69)	KirtonDr (69)	-41.1116161	175.0385453	7	0	
4349	4349	Montgomery Avenue at Alanbrooke Place	MontgomeryAve at Alanbrooke	-41.27941366	174.7308075	3	0	
3546	3546	Newlands Road at Salford Street	NewlandsRd at Salford	-41.22906421	174.8183648	3	0	
1548	1548	Tutere Street at Pio Pio Place	TutereSt at PioPio	-40.86879246	175.0128775	10	0	
2574	2574	Kahu Road at Kenef Road (opposite 139)	KahuRd at Kenef (opp 139)	-41.10771541	174.8795233	6	0	
8691	8691	Akatarawa Road - Brown Owl Shops (near 26)	BrownOwlShops (26)	-41.10300352	175.0967442	7	0	
8582	8582	Wakefield Street near Mumby Lane	WakefieldSt nr Mumby	-41.12440727	175.0737213	7	0	
2568	2568	Postgate School - Postgate Drive	PostgateSch-PostgateDr	-41.11203005	174.8818252	6	0	
8280	8280	Rata Street at Wesley Rata Village	RataSt at WesleyRataVillage	-41.20389594	174.968536	5	0	
6909	6909	Ghuznee Street at Cuba Street (opposite)	GhuzneeSt at Cuba (opp)	-41.29340013	174.7764403	1	0	
2841	2841	Richard Street (near 28)	RichardSt (28)	-41.10258451	174.8364241	5	0	
2922	2922	Pikarere Street (near 49)	PikarereSt (49)	-41.11214234	174.8301401	5	0	
9903	9903	Wainuiomata Road at Davis Grove (near 76)	WainuiomataRd at Davis (76)	-41.2593664	174.9374956	5	0	
7771	7771	Mitchell Street at Colorado Grove	MitchellSt at Colorado	-41.31061453	174.7581526	2	0	
8324	8324	Tawhai Street (near 12)	TawhaiSt (12)	-41.17407033	174.9901729	6	0	
5368	5368	Hazlewood Avenue at Fitzgerald Place	HazlewoodAve at Fitzgerald	-41.29716839	174.7241108	3	0	
4929	4929	Pembroke Road opposite Hereford Street	PembrokeRd opp Hereford	-41.27149907	174.759729	2	0	
3836	3836	Haumia Street at Fisher Street (school stop)	HaumiaSt at Fisher (sch)	-41.228582	174.79928	3	0	
8612	8612	Norana Road at Aniseed Grove (near 64)	NoranaRd at Aniseed (64)	-41.10738081	175.1036715	7	0	
7150	7150	Happy Valley Road (near 85) (school stop)	HappyVlyRd (85) (sch)	-41.34013523	174.7601364	3	0	
9233	9233	Taita Drive at Percy Cameron Street (near 225)	TaitaDr at PercyCameron (225)	-41.18730347	174.9484846	5	0	
1754	1754	Koromiko Street - Alexander Rest Home	KoromikoSt-RestHome	-40.73623498	175.1204706	13	0	
9900	9900	St Claudine Thevenet School (school stop)	StClaudineThevenetSch (sch)	-41.25748263	174.9374897	5	0	
1147	1147	Paraparaumu Beach Shops - Stop B	ParaparaumuBchShops -B	-40.89309815	174.9814885	9	0	
2522	2522	Kahu Road at Kenef Road	KahuRd at Kenef	-41.10695155	174.8789615	6	0	
6346	6346	Airport Retail Park	AirportRetailPk	-41.3263226	174.8024269	3	0	
5131	5131	Warwick Street at Gloucester Street (near 4)	WarwickSt at Gloucester (4)	-41.26879569	174.7597397	2	0	
8116	8116	Queens Drive at Waterloo Road	QueensDr at Waterloo	-41.20854234	174.9065348	4	0	
6039	6039	Ferry Street at Dundas Street	FerrySt at Dundas	-41.32257494	174.8287288	3	0	
1582	1582	Belvedere Avenue at Matai Street (near 127)	BelvedereAve at Matai (127)	-40.87154823	175.0547728	10	0	
9090	9090	Petone Station - Korokoro Road	PetoneStn-KorokoroRd	-41.22057464	174.8703804	4	0	
3476	3476	Stewart Drive at Fitzpatrick Street	StewartDr at Fitzpatrick	-41.22107571	174.8165926	3	0	
1204	1204	Te Roto Drive at Kapiti Road	TeRotoDr at Kapiti	-40.9058698	174.9982539	9	0	
8250	8250	High Street opposite Macky Street	HighSt opp Macky	-41.18381276	174.9577999	5	0	
6052	6052	Moa Point Road (near 39)	MoaPtRd (39)	-41.33727468	174.8104969	3	0	
SILV	SILV	Silverstream Station	SilverstreamStn	-41.14729787	175.0102924	6	0	
7922	7922	Mansfield Street (near 320)	MansfieldSt (320)	-41.31854692	174.7811853	2	0	
2199	2199	Driver Crescent (school stop)	DriverCres-school	-41.14098384	174.8727577	5	0	
2911	2911	Main Road (near 8)	MainRd (8)	-41.10418045	174.8380166	5	0	
5384	5384	Plymouth Street (near 3)	PlymouthSt (3)	-41.28687342	174.7497529	3	0	
8225	8225	High Street at Thornycroft Avenue (near 738)	HighSt at Thornycroft (738)	-41.20181906	174.9316226	5	0	
5455	5455	Bombay Street at Swansea Street	BombaySt at Swansea	-41.24924869	174.7824201	3	0	
8372	8372	George Street at Chittick Street (near 342)	GeorgeSt at Chittick (342)	-41.18064702	174.9796422	6	0	
4412	4412	Punjab Street (near 10)	PunjabSt (10)	-41.25218743	174.785468	3	0	
6069	6069	Karaka Bay Wharf	KarakaBayWhrf	-41.30437863	174.8312443	3	0	
1576	1576	Ngarara Road at Horopito Road (school stop)	NgararaRd at Horopito (sch)	-40.87826721	175.0517764	10	0	
7101	7101	Frobisher Street at Severn Street	FrobisherSt at Severn	-41.34387992	174.7631935	3	0	
4329	4329	Karori Road opposite Richmond Avenue	KaroriRd opp Richmond	-41.28656133	174.7303544	3	0	
4130	4130	Wilton Road at Warwick Street	WiltonRd at Warwick	-41.26797856	174.7602313	2	0	
2854	2854	Mapplebeck Street at Downes Street (near 28)	MapplebeckSt at Downes (28)	-41.10540151	174.8461485	5	0	
5369	5369	Karori South - Hazlewood Avenue	KaroriS-HazlewoodAve	-41.29863937	174.7221191	3	0	
1482	1482	Matai Road at Tiromoana Road	MataiRd at Tiromoana	-40.93232252	174.9843232	9	0	
8854	8854	Muritai Road at Konini Street (near 332)	MuritaiRd at Konini (332)	-41.29989569	174.8943834	6	0	
7746	7746	Hutchison Road - Stop C	HutchisonRd-C	-41.307634	174.7750794	2	0	
6022	6022	Constable Street at Coromandel Street (near 123)	ConstableSt at Coromandel (123)	-41.31260587	174.7867577	2	0	
1830	1830	High Street South opposite Hilton Road	HighStS opp Hilton	-41.04039093	175.5116018	13	0	
9979	9979	Wise Street at Russell Road	WiseSt at Russell	-41.24797542	174.9506447	5	0	
9568	9568	Fergusson Drive at Brentwood Street	FergussonDr at Brentwood	-41.13443469	175.0367477	7	0	
1501	1501	Waikanae Station - Main Road	WaikanaeStn-MainRd	-40.87706865	175.0656337	10	0	
2512	2512	Lauderdale Road (opposite 14)	LauderdaleRd (opp 14)	-41.11048	174.870579	5	0	
9139	9139	Tirohanga Road at Ardal Grove (school stop)	TirohangaRd at Ardal (sch)	-41.197803	174.90432	4	0	
1477	1477	Poplar Avenue (near 43)	PoplarAve (43)	-40.93619764	174.9789754	9	0	
2742	2742	Paremata School (school stop)	ParemataSch (sch)	-41.107233	174.868603	6/5	0	
6142	6142	Frobisher Street (near 75)	FrobisherSt (75)	-41.33952159	174.7644276	3	0	
2714	2714	Discovery Drive (near 51)	DiscoveryDr (51)	-41.11488807	174.8888147	6	0	
6016	6016	Adelaide Road at Hospital Road	AdelaideRd at Hospital	-41.30688499	174.7781204	2	0	
4321	4321	Chaytor Street at Curtis Street	ChaytorSt at Curtis	-41.28452301	174.7532694	3	0	
5415	5415	Calcutta Street (near 30)	CalcuttaSt (30)	-41.25142826	174.7879537	3	0	
6572	6572	Alexandra Road opposite SPCA	AlexandraRd opp SPCA	-41.306907	174.788261	2	0	
9627	9627	Te Marua - Plateau Road	TeMarua-PlateauRd	-41.09703392	175.145846	8	0	
7222	7222	Wellington Regional Aquatic Centre (opposite)	WgtnAquaticCtr (opp)	-41.31503208	174.7929168	2	0	
5317	5317	Glenmore Street (near 177)	GlenmoreSt (177)	-41.28783015	174.7578989	2	0	
4406	4406	Ngaio Gorge Road (near 17)	NgaioGorgeRd (17)	-41.2561607	174.7731629	3	0	
4432	4432	Onslow Road (near 47)	OnslowRd (47)	-41.25055234	174.8036839	3	0	
8001	8001	Hutt Road at Nevis Street	HuttRd at Nevis	-41.22361146	174.8664108	4	0	
1182	1182	Mazengarb Road at Ratanui Road (near 209)	MazengarbRd at Ratanui (209)	-40.89434267	175.0084715	9	0	
8992	8992	Jellicoe Street at Venice Street	JellicoeSt at Venice	-41.22073249	175.4562249	13	0	
3913	3913	Jamaica Drive (near 17) (school stop)	JamaicaDr (17) (sch)	-41.181429	174.836826	4	0	
1942	1942	High Street Masterton (near 125)	HighSt Masterton (125)	-40.96145668	175.6340767	14	0	
4925	4925	Northland Road at Seaview Terrace	NorthlandRd at Seaview	-41.27948849	174.7614959	2	0	
3260	3260	Hutt Road at Rangiora Avenue	HuttRd at Rangiora	-41.25552425	174.7967786	2/3	0	
7562	7562	Hawker Street at Majoribanks Street	HawkerSt at Majoribanks	-41.29494072	174.7874697	1	0	
9414	9414	Field Street at Kurth Crescent (near 52)	FieldSt at Kurth (52)	-41.15255441	175.0102573	6	0	
8517	8517	Kirton Drive at Grace Nicholls Grove	KirtonDr at GraceNicholls	-41.108239	175.038998	7	0	
4404	4404	Ngaio Gorge Road (near 105)	NgaioGorgeRd (105)	-41.25617527	174.778057	2/3	0	
2008	2008	Lyttelton Avenue at Kilkerran Place	LytteltonAve at Kilkerran	-41.13386505	174.8405131	5	0	
KENE	KENE	Kenepuru Station	KenepuruStn	-41.14962774	174.8381125	5	0	
6141	6141	Frobisher Street (near 53)	FrobisherSt (53)	-41.34052845	174.7633791	3	0	
9158	9158	Woburn Road opposite Hutt Recreation Ground	WoburnRd at RecGrd	-41.21731463	174.9044038	4	0	
7523	7523	The Crescent (near 14)	Crescent (14)	-41.28915208	174.8005673	2	0	
9978	9978	Wise Street at Pencarrow Crescent (near 124)	WiseSt at Pencarrow (124)	-41.24366427	174.9499197	5	0	
1132	1132	Te Kupe Road (near 52)	TeKupeRd (52)	-40.8797942	174.9955703	9	0	
2503	2503	Papakowhai Road (hail and ride) (school stop)	PapakowhaiRd (h/r) (sch)	-41.11128	174.86179	5	0	
3516	3516	Kenmore Street (near 106)	KenmoreSt (106)	-41.22346462	174.8250097	3	0	
4461	4461	Cashmere Avenue (near 68)	CashmereAve (68)	-41.24545719	174.7954287	3	0	
4383	4383	Messines Road (near 22)	MessinesRd (22)	-41.28544373	174.7489983	3	0	
6267	6267	Nevay Road (near 94)	NevayRd (94)	-41.30644223	174.8293529	3	0	
1730	1730	Otaki School - Mill Road	OtakiSch-MillRd	-40.75426766	175.143905	13	0	
8154	8154	Randwick Road at Randwick School	RandwickRd at RandwickSch	-41.22955463	174.9049977	4	0	
5365	5365	Woodhouse Avenue at South Karori Road	WoodhouseAve at SthKarori	-41.28897503	174.723895	3	0	
1211	1211	Guildford Drive at Langdale Avenue	GuildfordDr at Langdale	-40.89797347	175.0016962	9	0	
8902	8902	Wainuiomata Road at Maire Street	WainuiomataRd at Maire	-41.25648376	174.9321585	5	0	
6772	6772	Mitchell Street at Virginia Grove	MitchellSt at Virginia	-41.31287452	174.757616	2	0	
BOXH	BOXH	Box Hill Station	BoxHillStn	-41.24601334	174.7887566	3	0	
6551	6551	Evans Bay Parade (opposite 464)	EvansBayPde (opp 464)	-41.30945994	174.7979007	2	0	
1002	1002	Coastlands - Stop A	Coastlands-A	-40.9177206	175.0036538	9	0	
3620	3620	Helston Road at McMahon Way (near 112)	HelstonRd at McMahon (112)	-41.21742945	174.8136287	3	0	
2838	2838	Thornley Street at Dimock Street (near 28)	ThornleySt at Dimock (28)	-41.10001037	174.8396865	5	0	
1834	1834	Carterton - High Street South (St David's)	Carterton-HighStS (StDavid's)	-41.02776284	175.5247994	13	0	
2547	2547	The Companionway at Discovery Drive (school stop)	TheCompanionway at Discovery (sch)	-41.111852	174.889744	6	0	
7214	7214	Pirie Street at Porritt Avenue (near 66)	PirieSt at Porritt (66)	-41.29835369	174.7858321	1	0	
7773	7773	Mitchell Street (near 212)	MitchellSt (212)	-41.31423599	174.7569358	2	0	
8511	8511	Totara Park Shops - California Drive	TotaraPkShops-CaliforniaDr	-41.11083947	175.0818689	7	0	
2850	2850	Dimock Street (near 74)	DimockSt (74)	-41.10452215	174.8448139	5	0	
2702	2702	Warspite Avenue (near 488)	WarspiteAve (488)	-41.12070439	174.8690897	5	0	
7927	7927	Hornsey Road at Auckland Terrace	HornseyRd at Auckland	-41.32574519	174.7874752	3	0	
9260	9260	Naenae Road at Horlor Street	NaenaeRd at Horlor	-41.20255793	174.9458187	5	0	
6928	6928	Hornsey Road at Sunglow Avenue (near 47)	HornseyRd at Sunglow (47)	-41.32764146	174.7871685	3	0	
6237	6237	Rotherham Terrace at Darlington Road	RotherhamTce at Darlington	-41.31270032	174.822935	3	0	
9092	9092	London Road at Rakeiora Grove	LondonRd at Rakeiora	-41.21684655	174.8725406	4	0	
7236	7236	Park Road at Rotherham Terrace (near 86)	ParkRd at Rotherham (86)	-41.31197783	174.8196472	3	0	
8206	8206	Harrison Crescent (near 22)	HarrisonCres (22)	-41.19939993	174.9415689	5	0	
7046	7046	Breaker Bay Road at Eve Bay (near 108)	BreakerBayRd at EveBay (108)	-41.33270588	174.8260247	3	0	
9697	9697	Gillespies Road (near 47) (school stop)	GillespiesRd (47) (sch)	-41.08982691	175.1031112	7	0	
9219	9219	Kelson - Major Drive	Kelson-MajorDr	-41.17178352	174.9394417	5	0	
2342	2342	Cannons Creek Shops - Bedford Street (near 225)	CannonsCrkShops-BedfordSt (225)	-41.14203118	174.8648101	5	0	
9462	9462	Silverstream Station - Fergusson Drive (St Patrick's College)	SilverstreamStn-FergussonDr (StPatrick'sCol)	-41.14656495	175.0128149	6	0	
6512	6512	Cable Street at Waitangi Park	CableSt at WaitangiPk	-41.29225417	174.7849573	1	0	
2012	2012	Norrie Street - Te Rauparaha Park	NorrieSt-TeRauparahaPk	-41.13214	174.83968	5	0	
7051	7051	Breaker Bay Road at Palmer Bay	BreakerBayRd at PalmerBay	-41.34112993	174.8230332	3	0	
8165	8165	Waterloo Station - Oxford Terrace (Stop B)	WaterlooStn-B	-41.21343416	174.9211098	4	0	
6333	6333	Rua Street at Lyall Parade	Rua Street at Lyall Parade	-41.33007133	174.7930902	3	0	
4506	4506	Reading and North Street	Reading and NorthSt	-41.07590833	175.4685577	12	0	
5115	5115	Park Street (near 7)	ParkSt (7)	-41.27150146	174.7771596	1	0	
2904	2904	Titahi Bay School - Kura Street (opposite)	TitahiBaySch-KuraSt (opp)	-41.11128935	174.8384531	5	0	
3906	3906	Middleton Road at Richmond Hill Road	MiddletonRd at RichmondHill	-41.19226393	174.8272429	4/3	0	
2515	2515	Sunset Parade (hail and ride) (school stop)	SunsetPde (h/r) (sch)	-41.08105047	174.8637401	6	0	
8298	8298	Taita College - Eastern Hutt Road	TaitaColl-EHuttRd	-41.17464558	174.9671829	5	0	
3833	3833	Broadmeadows - John Sims Drive (near 23)	Broadmeadows-JohnSimsDr (23)	-41.23470559	174.7973205	3	0	
9410	9410	Sunbrae Drive at Blue Mountains Road (near 3)	SunbraeDr at BlueMtns (3)	-41.15257575	175.0141905	6	0	
5943	5943	Moana Road (near 47)	MoanaRd (47)	-41.28958273	174.7551993	2	0	
2150	2150	Waitangirua Mall - Warspite Avenue (opposite)	WaitangiruaMall-WarspiteAve (opp)	-41.13054	174.88053	5	0	
6519	6519	Oriental Parade opposite Carlton Gore Road	OrientalPde opp CarltonGore	-41.28817851	174.7994657	1/2	0	
1310	1310	Raumati Beach Shops - Raumati Road (near 24)	RaumatiBchShops-RaumatiRd (24)	-40.91920476	174.982387	9	0	
7069	7069	Karaka Bay Road opposite Onehunga Road	KarakaBayRd opp Onehunga	-41.30433299	174.8313419	3	0	
9621	9621	Plateau Road opposite Te Marua Stores	PlateauRd opposite TeMaruaStores	-41.09365803	175.1299032	8	0	
9140	9140	Waterloo Station - Stop C	WaterlooStn-C	-41.21406237	174.9212475	4	0	
3208	3208	Middleton Road opposite Wingfield Place	MiddletonRd opp Wingfield	-41.21115712	174.811547	3	0	
9876	9876	Tirohanga Road at Arahiwi Grove (hail and ride) (school stop)	TirohangaRd at Arahiwi (h/r)	-41.19811281	174.9015383	4	0	
9375	9375	Stokes Valley Road at Kamahi Street	StokesVlyRd at Kamahi	-41.18687188	174.9829359	6	0	
4504	4504	Humphries Street at Main Street	HumphriesSt at MainSt	-41.08679386	175.4528467	12	0	
7763	7763	Mitchell Street (near 33)	MitchellSt (33)	-41.30393215	174.7598395	2	0	
2160	2160	Warspite Avenue at Flora Street	WarspiteAve at Flora	-41.13741364	174.8718279	5	0	
3704	3704	Woodridge Drive at Glenwood Grove (near 19)	WoodridgeDr at Glenwood (19)	-41.21975914	174.8314677	3	0	
4114	4114	Murphy Street - Motorway	MurphySt-Motorway	-41.27238623	174.7779328	1	0	
7935	7935	View Road at Hungerford Road (near 92)	ViewRd at Hungerford (92)	-41.33849834	174.7898556	3	0	
8576	8576	Wilson Street at Criterion Lane	WilsonSt at CriterionLn	-41.1252302	175.0680295	7	0	
3770	3770	Kenmore Street (near 6)	KenmoreSt (6)	-41.22857191	174.8267027	3	0	
8347	8347	Grounsell Crescent (near 260)	GrounsellCres (260)	-41.1936861	174.9224401	5	0	
7244	7244	Miramar Nth Rd opposite David Farrington Pk	MiramarNRd opp DavidFarringtonPk	-41.30210271	174.8246927	3	0	
1855	1855	Masterton - Church Street	Masterton-ChurchSt	-40.95000353	175.6621322	14	0	
2908	2908	Main Road at Whitehouse Crescent	MainRd at Whitehouse	-41.10811345	174.8399127	5	0	
6161	6161	The Esplanade (near 184)	Esplanade (184)	-41.34490694	174.7773618	3	0	
5112	5112	Molesworth Street - Cathedral	MolesworthSt-Cathedral	-41.27581576	174.7777543	1	0	
2310	2310	Champion Street at Gloucester Street (near 179)	ChampionSt at Gloucester (179)	-41.13898936	174.8635324	5	0	
1519	1519	Kapanui School (school stop)	KapanuiSch (sch)	-40.87417721	175.0550658	10	0	
3922	3922	Main Road Tawa (near 337)	MainRdTawa (337)	-41.15619748	174.8295776	4	0	
8556	8556	McLeod Street at Robertson Street	McLeodSt at Robertson	-41.11715986	175.0609871	7	0	
6281	6281	Wilberforce Street at Madison Place	WilberforceSt at Madison	-41.32249719	174.8222747	3	0	
8237	8237	Reynolds Street at Pearce Crescent	ReynoldsSt at Pearce	-41.17887951	174.95658	5	0	
7553	7553	St Patrick's College - Evans Bay Parade (opposite)	StPatrick'sColl-EvansBayPde (opp)	-41.31426519	174.7952894	2/3	0	
3821	3821	Kanpur Road (near 42)	KanpurRd (42)	-41.23749088	174.7931148	3	0	
3076	3076	Ohariu Road at Hallewell Crescent	OhariuRd at Hallewell	-41.21715158	174.8026465	3	0	
3902	3902	Middleton Road (near 279)	MiddletonRd (279)	-41.20387363	174.8164744	3	0	
7328	7328	Onepu Road at Endeavour Street (near 96)	OnepuRd at Endeavour (96)	-41.32311679	174.7953809	3	0	
8352	8352	Belmont - Park Road	Belmont-ParkRd	-41.18846689	174.9129232	5	0	
3060	3060	Cortina Avenue (near 21)	CortinaAve (21)	-41.22236372	174.7976599	3	0	
2554	2554	Spinnaker Drive at Ayton Drive (near 46)	SpinnakerDr at Ayton (46)	-41.10820426	174.8899331	6	0	
8160	8160	Waterloo Road at Queensgate	WaterlooRd at Queensgate	-41.20907067	174.9072658	4	0	
9852	9852	Muritai Road at Ngaio Street (near 275)	MuritaiRd at Ngaio (275)	-41.29688936	174.8964462	6	0	
0910	0910	Herbert Street at Bridge Street (temporary stop)	HerbertSt at BridgeSt (temp)	-41.211234	174.894848	4	0	
4935	4935	Norwich Street at Mairangi Road	NorwichSt at Mairangi	-41.26437028	174.7664613	2	0	
4135	4135	Wilton Park - Wilton Road	WiltonPk-WiltonRd	-41.26967939	174.7550241	2	0	
1378	1378	Raumati Road at Kiwi Road (near 37)	RaumatiRd at Kiwi (37)	-40.92025195	174.9862654	9	0	
9249	9249	High Street at Burcham Street (near 1105)	HighSt at Burcham (1105)	-41.18638211	174.955015	5	0	
8177	8177	Bell Road (near 55)	BellRd (55)	-41.2300325	174.9141985	4	0	
3502	3502	Helston Road (near 83)	HelstonRd (83)	-41.21878747	174.8131891	3	0	
4121	4121	Lennel Road at Moorhouse Street	LennelRd at Moorhouse	-41.26258434	174.7771565	2	0	
7126	7126	Adelaide Road at Duppa Street	AdelaideRd at Duppa	-41.32369323	174.7750734	2	0	
7035	7035	Broadway at Monorgan Road	Broadway at Monorgan	-41.32516	174.818646	3	0	
9853	9853	Muritai Road at Hinau Street (near 315)	MuritaiRd at Hinau (315)	-41.29861564	174.8955407	6	0	
3012	3012	Johnsonville School - Ohariu Road	J'villeSch-OhariuRd	-41.2185	174.8058	3	0	
8998	8998	Dublin Street at Roberts Street	DublinSt at Roberts	-41.2172989	175.4525179	13	0	
5461	5461	Cashmere Avenue (near 57)	CashmereAve (57)	-41.24519081	174.7951827	3	0	
3608	3608	Newlands Road opposite Pukehuia Park	NewlandsRd opp PukehuiaPk	-41.22377628	174.8223937	3	0	
1273	1273	Guildford Drive (opposite 106)	GuildfordDr (opp 106)	-40.89510902	175.0006601	9	0	
7033	7033	Hobart Street at Broadway	HobartSt at Broadway	-41.32491208	174.8119468	3	0	
4414	4414	Waru Street at Calcutta Street (near 7)	WaruSt at Calcutta (7)	-41.25230265	174.7896485	3	0	
1474	1474	Tennis Court Road at Kainui Road	TennisCourtRd at Kainui	-40.9399133	174.9776609	9	0	
3466	3466	Newlands College - Bracken Road	NewlandsColl-BrackenRd	-41.2188169	174.8227332	3	0	
7263	7263	Nevay Road (near 198)	NevayRd (198)	-41.29853083	174.8284151	3	0	
6550	6550	Evans Bay Parade opposite Belvedere Road	EvansBayPde opp Belvedere	-41.30828765	174.797988	2	0	
2910	2910	Main Road at Tireti Road	MainRd at Tireti	-41.10606357	174.8385455	5	0	
9309	9309	Holborn Drive at Greenwich Grove (near 135)	HolbornDr at Greenwich (135)	-41.16679738	174.9783908	6	0	
7909	7909	Ghuznee Street at Cuba Street	GhuzneeSt at Cuba	-41.2935802	174.7764452	1	0	
8509	8509	California Drive opposite Brightwater Crescent	CaliforniaDr opp BrightwaterCres	-41.10974582	175.0875507	7	0	
3925	3925	Duncan Street opposite Tawa College (school stop)	Tawa Intermediate-opp	-41.16387867	174.8309142	4	0	
6037	6037	Broadway at Tio Tio Road	Broadway at TioTio	-41.32392067	174.8233897	3	0	
8104	8104	Bridge Street at Normandale Road	BridgeSt at NormandaleRd	-41.21097813	174.8953936	4	0	
7791	7791	Ohiro Road (near 264)	OhiroRd (264)	-41.30919642	174.7625344	2	0	
6001	6001	Wellington Station - Stop C	WgtnStn-C	-41.27837975	174.779436	1	0	
9278	9278	Waddington Drive at Prouse Crescent	WaddingtonDr at Prouse	-41.20295191	174.9605172	5	0	
1743	1743	Domain Road (near 25)	DomainRd (25)	-40.758515	175.147366	13	0	
8148	8148	Birdwood Road (near 20)	BirdwoodRd (20)	-41.2168689	174.9263843	4	0	
6937	6937	Houghton Bay - Houghton Bay Road	HgtnBay-HgtnBayRd	-41.34126986	174.7853899	3	0	
4343	4343	Sunshine Avenue opposite Percy Dyett Drive	SunshineAve opp PercyDyett	-41.28371723	174.7259384	3	0	
5510	5510	Willis Street at Willbank Court	WillisSt at WillbankCt	-41.28801096	174.7754582	1	0	
9913	9913	Parenga Street at Ngaturi Grove	PerengaSt at Ngaturi	-41.28581259	174.9502192	5	0	
9614	9614	Norana Road opposite Gentian Street	NoranaRd opp GentianSt	-41.10478192	175.1078754	7	0	
8579	8579	Upper Hutt Station - Stop A	UpperHuttStn-A	-41.12597969	175.0705807	7	0	
3226	3226	Erlestoke Crescent at Tattenhall Grove	ErlestrokeCres at Tattenhall	-41.1999923	174.7997903	3	0	
1456	1456	Rosetta Road at Menin Road (near 188)	RosettaRd at Menin (188)	-40.92765705	174.9780079	9	0	
5382	5382	Messines Road at Braithwaite Street (near 1)	MessinesRd at Braithwaite (1)	-41.28436693	174.7487307	3	0	
7531	7531	Waipapa Road at Arawa Road	WaipapaRd at Arawa	-41.3000259	174.8012174	2	0	
6929	6929	Hornsey Road (near 65)	HornseyRd (65)	-41.32945866	174.7868743	3	0	
5402	5402	Kaiwharawhara Road (near 33)	KaiwharawharaRd (33)	-41.25828941	174.7869473	2	0	
5326	5326	Karori Road (near 223)	KaroriRd (223)	-41.28415914	174.7395319	3	0	
8529	8529	Miro Street (near 85)	MiroSt (85)	-41.13387397	175.0480482	7	0	
7567	7567	Roseneath Terrace at Thane Road (near 8)	RoseneathTce at Thane (8)	-41.29314341	174.7987662	2	0	
1316	1316	Alexander Road at Ngaio Road	AlexanderRd at Ngaio	-40.91271242	174.9827867	9	0	
1755	1755	Norfolk Crescent (near 56)	NorfolkCres (56)	-40.73817852	175.1225455	13	0	
1604	1604	Field Way at Konini Crescent (near 21)	FieldWay at Konini (21)	-40.85912383	175.030219	10	0	
1890	1890	Panama Village - Ngaumutawa Road	PanamaVillage-NgaumutawaRd	-40.94475228	175.6398268	14	0	
5429	5429	Homebush Road (near 70)	HomebushRd (70)	-41.24788522	174.8071909	3	0	
6244	6244	Miramar North Road at David Farrington Park	MiramarNRd at DavidFarringtonPk	-41.30228088	174.8248172	3	0	
9620	9620	Plateau School (school stop)	PlateauSch (sch)	-41.093005	175.132237	8	0	
9005	9005	Jackson Street at Britannia Street	JacksonSt at Britannia	-41.22555877	174.8795895	4	0	
6524	6524	Grafton Road (near 39)	GraftonRd (39)	-41.2908515	174.8013305	2	0	
9288	9288	Sladden Street (near 42)	SladdenSt (42)	-41.19553549	174.9517099	5	0	
1981	1981	Wairarapa College opposite (school stop)	WairarapaColl (opp) (sch)	-40.95013	175.645817	14	0	
9248	9248	Avalon Intermediate School (school stop)	AvalonIntSch (sch)	-41.188981	174.950958	5	0	
3830	3830	Rajkot Terrace at John Sims Drive	RajkotTce at JohnSims	-41.23321066	174.7952128	3	0	
6521	6521	Roseneath Shops	RoseneathShops	-41.28773572	174.8023442	2	0	
7015	7015	Adelaide Road (near 80)	AdelaideRd (80)	-41.30399098	174.7788779	2	0	
2944	2944	Tireti Road (near 42)	TiretiRd (42)	-41.10883293	174.8343355	5	0	
5944	5944	Moana Road opposite Disley Street	MoanaRd opp Disley	-41.29055673	174.7563002	2	0	
4947	4947	Highbury Road Terminus	HighburyRdTmns	-41.29393718	174.7531663	2	0	
1770	1770	Otaki College - Mill Road (opposite)	OtakiColl-MillRd (opp)	-40.75779765	175.152666	13	0	
5394	5394	Beauchamp Street (near 60)	BeauchampSt (60)	-41.28910709	174.7390648	3	0	
8299	8299	Pomare Station- Eastern Hutt Road (opposite)	PomareStn-EasternHuttRd (opp)	-41.16991735	174.969783	5	0	
1919	1919	Cnr Main Street and Hospital Street (hail and ride)	Cnr MainSt-HospSt (h/r)	-41.08925	175.450571	12	0	
7147	7147	Happy Valley Road (near 163) (school stop)	HappyVlyRd (163) (sch)	-41.33574519	174.7581114	3	0	
1413	1413	Tilley Road (near 101)	TilleyRd (101)	-40.98099646	174.9609086	8	0	
1564	1564	Te Moana Road (near 167)	TeMoanaRd (167)	-40.8700822	175.0358605	10	0	
5459	5459	Khandallah - Burma Road at Baroda Street	KHAN-BurmaRd at Baroda	-41.24181112	174.7923984	3	0	
3813	3813	Rajkot Terrace (near 4)	RajkotTce (4)	-41.23645884	174.7974243	3	0	
7274	7274	Para Street opposite Holy Cross School	ParaSt opp HolyCrossSch	-41.316936	174.819422	3	0	
3064	3064	Cortina Avenue opposite Stonefield Place	CortinaAve opp Stonefield	-41.21950867	174.7959116	3	0	
5417	5417	Clutha Avenue (near 40)	CluthaAve (40)	-41.24846454	174.7873955	3	0	
8136	8136	Waterloo Road opposite St Bernard's College	WaterlooRd opp StBernard'sColl	-41.21071085	174.9169748	4	0	
4347	4347	Montgomery Avenue (near 24)	MongomeryAve (24)	-41.28238488	174.730886	3	0	
3752	3752	Kentwood Drive (near 32)	KentwoodDr (32)	-41.21635875	174.8300607	3	0	
1438	1438	Rosetta Road (near 307)	RosettaRd (307)	-40.92160618	174.9788497	9	0	
2002	2002	Porirua Station - Stop B	PoriruaStn-B	-41.1376946	174.8432414	5	0	
2326	2326	Sievers Grove (near 151)	SieversGrv (151)	-41.15082214	174.8614842	5	0	
4305	4305	Gipps Street at Shirley Street (school stop)	GippsSt at Shirley (sch)	-41.2874644	174.7464251	3	0	
1537	1537	Huiawa Street at Heperi Street (school stop)	HuiawaSt at Heperi (sch)	-40.861827	175.028619	10	0	
6301	6301	Strathmore Avenue (near 33)	StrathmoreAve (33)	-41.32673583	174.8205571	3	0	
8420	8420	Pinehill Crescent (near 26)	PinehillCres (26)	-41.14476707	175.0280117	6	0	
6090	6090	Scots College (school grounds)	ScotsColl (sch grds)	-41.32747976	174.8184304	3	0	
7793	7793	Ohiro Road (near 362)	OhiroRd (362)	-41.31552628	174.7609129	2	0	
2324	2324	Sievers Grove (near 97)	SieversGrv (97)	-41.1485065	174.8598563	5	0	
9060	9060	Protea Street (near 9)	ProteaSt (9)	-41.20465164	174.8746974	4	0	
1921	1921	Main Street (near 165)	MainSt (165)	-41.08474038	175.4556748	12	0	
7043	7043	Inglis Street at Burnham Street (near 88)	InglisSt at Burnham (88)	-41.32595434	174.831452	3	0	
2030	2030	Lyttelton Avenue (opposite New World)	LytteltonAve	-41.13626359	174.8426056	5	0	
2114	2114	Warspite Avenue at Castor Crescent (near 51)	WarspiteAve at Castor (51)	-41.13925684	174.8692591	5	0	
9144	9144	Waiwhetu Road at Grenville Street	WaiwhetuRd at Grenville	-41.22162018	174.9163391	4	0	
4360	4360	Collier Avenue (near 20)	CollierAve (20)	-41.28782834	174.7282833	3	0	
9985	9985	Fitzherbert Road at Shopping Centre	FitzherbertRd at ShoppingCtr	-41.2619041	174.9472394	5	0	
1366	1366	Matatua Road opposite Tainui Street	MatatuaRd opp Tainui	-40.91023035	174.9804566	9	0	
2548	2548	Whitby - The Crowsnest	Whitby-Crowsnest	-41.10668748	174.894534	6	0	
9324	9324	The Glen - Tawhai Street (near 17)	TheGlen-TawhaiSt (17)	-41.17380232	174.9900456	6	0	
9694	9694	Akatarawa Road - Birchville Picnic Area	BirchvillePicnicArea	-41.09154059	175.0980464	7	0	
3602	3602	Newlands Road (opposite 72)	NewlandsRd (opp 72)	-41.23055745	174.8150654	3	0	
6122	6122	South Wellington Intermediate School (school stop)	SWIS (sch)	-41.31787467	174.7780607	2	0	
6042	6042	Monro Street at Seatoun Park	MonroSt at SeatounPk	-41.32556569	174.8332334	3	0	
6958	6958	Melrose Road (near 32)	MelroseRd (32)	-41.33686072	174.7792941	3	0	
5425	5425	Mandalay Terrace (near 27)	MandalayTce (27)	-41.24714227	174.8028741	3	0	
8074	8074	Cypress Drive near Wisteria Drive (hail and ride) (school stop)	CypressDr nr Wisteria (h/r) (sch)	-41.206745	174.883909	4	0	
9540	9540	Tawai Street (near 14)	TawaiSt (14)	-41.13595034	175.0376286	7	0	
5363	5363	Woodhouse Avenue opposite Parklands Drive	WoodhouseAve opp Parklands	-41.29202555	174.7246919	3	0	
3214	3214	Burbank Crescent at Longmont Terrace	BurbankCres at Longmont	-41.20360926	174.8103846	3	0	
9067	9067	Poto Road at Wilson Grove (near 54)	PotoRd at Wilson (54)	-41.19965598	174.8882692	4	0	
9519	9519	Kirton Drive at Percy Kinsman Crescent	KirtonDr at PercyKinsman	-41.11171692	175.0426628	7	0	
3418	3418	Beazley Avenue opposite Beverley Grove	BeazleyAve opp Beverley	-41.21605794	174.8206287	3	0	
9984	9984	Fitzherbert Road at Gospel Chapel	FitzherbertRd at Chapel	-41.26018956	174.9474272	5	0	
6162	6162	The Esplanade (near 136)	TheEsplanade (136)	-41.344372	174.780566	3	0	
5132	5132	Gloucester Street (near 5)	GloucesterSt (5)	-41.26917274	174.7587114	2	0	
5452	5452	Colway Street (near 43)	ColwaySt (43)	-41.24905145	174.7785799	3	0	
1836	1836	Carterton - Broadway	Carterton-Broadway	-41.02373533	175.5277377	13	0	
1415	1415	Henare Street at Wellington Road	HenareSt at Wellington	-40.97637877	174.9603606	8	0	
1735	1735	Aotaki Street (near 55)	AotakiSt (55)	-40.75648357	175.137919	13	0	
1500	1500	Waikanae - Ngaio Road at Main Road	Waikanae-NgaioRd at Main	-40.8759552	175.0652334	10	0	
1816	1816	State Highway 2 at Camp Road (hail and ride)	SH2 at Camp (h/r)	-41.11856763	175.3584376	11	0	
1933	1933	High Street South at St Mary's School	HighStS at StMary'sSch	-41.03051995	175.5222881	13	0	
3524	3524	Kenmore Street (near 5)	KenmoreSt (5)	-41.22858137	174.8261065	3	0	
2770	2770	Spinnaker Drive at Spinnaker Walkway (near 99)	SpinnakerDr at Walkway (99)	-41.11248064	174.8873165	6	0	
8068	8068	Poto Road at Pokohiwi Road	PotoRd at Pokohiwi	-41.20116107	174.8898628	4	0	
4449	4449	Ngaio Town Hall - Ottawa Road (opposite)	NgaioTownHall-OttawaRd (opp)	-41.25011915	174.7735962	3	0	
9205	9205	Oxford Terrace at Lincoln Avenue (near 170)	OxfordTce at Lincoln (170)	-41.20113457	174.9401891	5	0	
6128	6128	Adelaide Road at Dover Street	AdelaideRd at Dover	-41.32792928	174.7743909	3	0	
1386	1386	Rimu Road - Coastal Villas (near 97)	RimuRd (97)	-40.91991842	174.9984396	9	0	
5447	5447	Kenya Street (near 52)	KenyaSt (52)	-41.25447575	174.7714463	3	0	
9517	9517	Kirton Drive opposite Grace Nicholls Grove	KirtonDr opp GraceNicholls	-41.10900407	175.0381096	7	0	
8848	8848	Muritai Road at Houhere Terrace (near 108)	MuritaiRd at Houhere (108)	-41.28862984	174.9002671	6	0	
1949	1949	Chapel Street - UCOL	ChapelSt-UCOL	-40.95334471	175.6539504	14	0	
1314	1314	Alexander Road at Tui Road (near 47)	AlexanderRd at Tui (47)	-40.91460917	174.9824871	9	0	
8354	8354	Hill Road opposite Belmont Terrace	HillRd opp Belmont	-41.18975711	174.925783	5	0	
1312	1312	Alexander Road at Karaka Grove	AlexanderRd at Karaka	-40.91669006	174.9819556	9	0	
0006	0006	Fare Zone Boundary - Ruamahanga River Bridge (Kokotau Road)	FareZoneBoundary-RuamahangaRiverBr (Kokotau Rd)	-41.09805	175.56877	11	0	
7724	7724	Mills Road at Veronica Street	MillsRd at Veronica	-41.31184803	174.7658313	2	0	
5940	5940	Raroa Road at Cluny Avenue	RaroaRd at Cluny	-41.28926581	174.7571239	2	0	
7063	7063	Marine Parade (opposite 135)	MarinePde (opp 135)	-41.31673429	174.8278487	3	0	
8203	8203	Oxford Terrace at Trinity Avenue	OxfordTce at Trinity	-41.20455988	174.9346848	5	0	
6752	6752	Balfour Street (opposite 81)	BalfourSt (opp 81)	-41.31649866	174.7679878	2	0	
2862	2862	Titahi Bay - Gloaming Hill at Onepoto Road	TitahiBay-GloamingHill at Onepoto	-41.11351825	174.8475834	5	0	
8051	8051	Dowse Drive (near 4)	DowseDr (4)	-41.21608222	174.8807495	4	0	
1362	1362	Wharemauku Road (near 54)	WharemaukuRd (54)	-40.90432504	174.9781433	9	0	
4341	4341	Marshall Street at Ranelagh Street	MarshallSt at Ranelagh	-41.28594295	174.7278753	3	0	
7332	7332	Onepu Road at Lyall Parade (near 222)	OnepuRd at Lyall (222)	-41.328676	174.795263	3	0	
7711	7711	Willis Street - Abel Smith Street	WillisSt-AbelSmithSt	-41.29498	174.77134	1	0	
9555	9555	McLeod Street opposite Kelly Grove	McLeodSt opp Kelly	-41.11758168	175.0575463	7	0	
4328	4328	Karori Road opposite St Teresa's School	KaroriRd opp StTeresa's	-41.28536061	174.7350564	3	0	
2625	2625	Pendennis Point near St Ives Drive (hail and ride) (school stop)	PendennisPt nr StIves (h/r) (sch)	-41.09051753	174.8782896	6	0	
5456	5456	Mysore Street (near 13)	MysoreSt (13)	-41.25041633	174.7835102	3	0	
8959	8959	Wainuiomata High School - Parkway	WainuiomataHighSch-Pkway	-41.25145207	174.9367842	5	0	
MATA	MATA	Matarawa Station	MatarawaStn	-41.04880879	175.4487361	13	0	
5419	5419	Khandallah Village - Stop B	KhandallahVlg-B	-41.24714471	174.7911785	3	0	
7122	7122	Rintoul Street at Te Wharepouri Street	RintoulSt at TeWharepouri	-41.3185086	174.777839	2	0	
9992	9992	Cnr Ponatahi Road and Kokotau Road (hail and ride) (school stop)	Cnr PonatahiRd-KokotauRd (h/r) (sch)	-41.103783	175.571161	13	0	
1417	1417	Wellington Road (near 104)	WellingtonRd (104)	-40.98078536	174.9572834	8	0	
6015	6015	Adelaide Road at Broomhedge Street	AdelaideRd at Broomhedge	-41.30453118	174.7788925	2	0	
1838	1838	Clareville - SH2 at Chester Road (northbound)	SH2 at Chester (n)	-41.00808205	175.551395	13	0	
2594	2594	Tweed Road at Beauly Grove	TweedRd at Beauly	-41.11666511	174.8626625	5	0	
5499	5499	Thorndon Quay at Wellington Station	ThorndonQy at WgtnStn	-41.27811791	174.7803242	1	0	
5506	5506	Lambton Central - Stop B	LambtonCtrl-B	-41.28296166	174.7757989	1	0	
3420	3420	Paparangi School - Beazley Avenue (opposite)	PaparangiSch-BeazleyAve (opp)	-41.21481821	174.8192822	3	0	
6223	6223	Kilbirnie Library - Kilbirnie Crescent	KilbirnieLib-KilbirnieCres	-41.3161616	174.7941379	2	0	
1945	1945	St Matthew's College (school stop)	StMatthewsColl (sch)	-40.945111	175.65013	14	0	
1961	1961	Pownall Street opposite 138 (hail and ride)	PownallSt opp 138 (h/r)	-40.95459919	175.6391987	14	0	
5025	5025	Hutt Road at Sar Street	HuttRd at Sar	-41.2671097	174.7815769	1	0	
6525	6525	Grafton Road at The Crescent	GraftonRd at TheCres	-41.29194497	174.8005247	2	0	
7563	7563	Hawker Street at Doctors Common	HawkerSt at DrsCommon	-41.29340653	174.7887021	1	0	
4384	4384	Plymouth Street at Messines Road	PlymouthSt at Messines	-41.28659787	174.7501038	3	0	
5534	5534	Everest Street at St Benedict's School	EverestSt at StBenedictsSch	-41.24911433	174.7919484	3	0	
8075	8075	Cedar Street near Aspen Grove (hail and ride) (school stop)	CedarSt nr Aspen (h/r) (sch)	-41.206498	174.881374	4	0	
5428	5428	Homebush Road (near 90)	HomebushRd (90)	-41.24723625	174.8083664	3	0	
4128	4128	Izard Park - Wilton Road	IzardPk-WiltonRd	-41.26440689	174.7640748	2	0	
3624	3624	Helston Road at Hardy Street	HelstonRd at Hardy	-41.22087703	174.8120538	3	0	
8061	8061	Maungaraki Road at Otamarau Grove (near 308)	MaungarakiRd at Otamarau (308)	-41.20392945	174.874796	4	0	
7260	7260	Akaroa Drive opposite Countess Close	AkaroaDr opp Countess	-41.30117665	174.8206059	3	0	
3974	3974	Middleton Road at Wingfield Place	MiddletonRd at Wingfield	-41.21063059	174.811968	3	0	
LIND	LIND	Linden Station	LindenStn	-41.15895027	174.8320205	4	0	
1274	1274	Kapiti Road at Cedar Drive	KapitiRd at Cedar	-40.89952932	174.9898717	9	0	
3526	3526	Kenmore Street at Barclay Street (near 35)	KenmoreSt at Barclay (35)	-41.22800331	174.8284765	3	0	
MANA2	MANA2	Mana Station	ManaStn	-41.09528391	174.8681817	6	0	MANA	
3966	3966	Middleton Road opposite Richmond Hill Road	MiddletonRd opp RichmondHill	-41.19217012	174.8274788	4/3	0	
1556	1556	Tutere Street at Hemara Street	TutereSt at Hemara	-40.86109355	175.0245512	10	0	
6750	6750	McColl Street opposite Krull Street	McCollSt opp Krull	-41.31386196	174.7695891	2	0	
5342	5342	Marshall Street at Hildreth Street	MarshallSt at Hildreth	-41.28460493	174.7270041	3	0	
6516	6516	Oriental Parade at Oriental Bay Rotunda	OrientalPde at OrientalBayRotunda	-41.29122976	174.7944144	1	0	
7529	7529	Hataitai Road at Te Anau Road	HataitaiRd at TeAnau	-41.29715756	174.8012652	2	0	
6046	6046	Breaker Bay Road at Eve Bay	BreakerBayRd at EveBay	-41.33288404	174.8261492	3	0	
1940	1940	High Street Masterton (near 199)	HighSt Masterton (199)	-40.96216734	175.6266194	14	0	
8270	8270	Waiwhetu Road at Naenae Road (near 368)	WaiwhetuRd at Naenae (368)	-41.20581025	174.935318	5	0	
6150	6150	Happy Valley Road (near 88) (school stop)	HappyVlyRd (88) (sch)	-41.33994577	174.7602561	3	0	
6218	6218	Moxham Avenue at Raupo Street (near 87)	MoxhamAve at Raupo (87)	-41.30749464	174.7930105	2	0	
9272	9272	Waddington Drive at Hamerton Street (near 9)	WaddingtonDr at Hamerton (9)	-41.20409342	174.9409921	5	0	
5927	5927	Pembroke Road at Cheshire Street	PembrokeRd at Cheshire	-41.27619004	174.759258	2	0	
8326	8326	The Glen - Horoeka Street (near 95)	TheGlen-HoroekaSt (95)	-41.17480633	174.9944867	6	0	
8094	8094	Akatea Road at Maungaraki Road	AkateaRd at Maungaraki	-41.21348156	174.8689855	4	0	
6542	6542	Evans Bay Parade at Balaena Bay	EvansBayPde at BalaenaBay	-41.29200137	174.8026759	2	0	
7304	7304	Monorgan Road at Leveson Street	MonorganRd at LevesonSt	-41.33107	174.82093	3	0	
1184	1184	Mazengarb Road at Realm Drive	MazengarbRd at Realm	-40.89558033	175.0098147	9	0	
2564	2564	Leeward Drive at Venus Place	LeewardDr at Venus	-41.11280336	174.8841101	6	0	
2026	2026	Norrie Street opposite Te Rauparaha Park	NorrieSt opp TeRauparahaPk	-41.13225	174.83983	5	0	
9310	9310	Holborn Drive (near 153)	HolbornDr (153)	-41.16917692	174.9761976	6	0	
7769	7769	Mitchell Street at Karepa Street	MitchellSt at Karepa	-41.30773158	174.7581946	2	0	
7234	7234	Park Road at Byron Street (near 34)	ParkRd at Byron (34)	-41.31464428	174.8176357	3	0	
7300	7300	Kahurangi School (opposite)	KahurangiSch (opp)	-41.328226	174.820524	3	0	
1412	1412	Tilley Road (near 67)	TilleyRd (67)	-40.98310771	174.9584491	8	0	
6214	6214	Pirie Street at Porritt Avenue (near 77)	PirieSt at Porritt (77)	-41.29829421	174.7861281	1	0	
8982	8982	Nelson Crescent at Wise Street (near 17)	NelsonCres at Wise (17)	-41.25490339	174.9510895	5	0	
REDW2	REDW2	Redwood Station	RedwoodStn	-41.17494091	174.8271384	4	0	REDW	
8228	8228	Naenae College - High Street	NaenaeColl-HighSt	-41.19655321	174.9394575	5	0	
1915	1915	State Highway 2 at Boundary Road (southbound)	SH2 at Boundary (Sbound)	-41.1198024	175.3376382	11	0	
2808	2808	Takapuwahia Drive at Rangituhi Crescent (near 22)	TakapuwahiaDr at Rangituhi (22)	-41.12611471	174.8294563	5	0	
6261	6261	Mt Crawford	MtCrawford	-41.29421502	174.8272623	3	0	
1813	1813	Fitzherbert Street (near 89)	FitzherbertSt (89)	-41.11807389	175.3295969	11	0	
3424	3424	Mark Avenue (near 37)	MarkAve (37)	-41.21251687	174.8167135	3	0	
6258	6258	Kaikoura Street (near 49)	KaikouraSt (near 49)	-41.30390593	174.8188901	3	0	
8536	8536	Blenheim Street at Swimming Pool	BlenheimSt at SwmgPool	-41.1265247	175.0661642	7	0	
7050	7050	Breaker Bay Road at Ranger Point	BreakerBayRd at RangerPt	-41.340048	174.823957	3	0	
2786	2786	Frances Brown Avenue at Road 3	FrancesBrownAve at RD3	-41.12676258	174.8565154	5	0	
1811	1811	Featherston - Fitzherbert Street (opposite 32)	Featherston-FitzherbertSt opp 32	-41.11683	175.32356	11	0	
4418	4418	Clutha Avenue at Nicholson Road (near 3)	CluthaAve at Nicholson (3)	-41.24807289	174.7894137	3	0	
9099	9099	Hutt Road opposite Nevis Street	HuttRd opp Nevis	-41.22352337	174.866289	4	0	
9268	9268	Fairfield Shops - Waiwhetu Road (near 197)	FairfieldShops-WaiwhetuRd (197)	-41.21180815	174.9321551	4/5	0	
1731	1731	Waerenga Road (near 57)	WaerengaRd (57)	-40.75784866	175.1437622	13	0	
6253	6253	Maupuia Road at Zaida Way	MaupuiaRd at Zaida	-41.30974715	174.8140353	3	0	
9416	9416	Silverstream Station - Kiln Street	SilverstreamStn-KilnSt	-41.147486	175.0116515	6	0	
2758	2758	Discovery Drive at The Haven	DiscoveryDr at Haven	-41.11536759	174.8979994	6	0	
8847	8847	Muritai Road at Marine Parade (near 5)	MuritaiRd at Marine (5)	-41.28698765	174.901533	6	0	
4416	4416	Cockayne Road at Lucknow Terrace	CockayneRd at Lucknow	-41.24974253	174.7869364	3	0	
6266	6266	Nevay Road (near 122)	NevayRd (122)	-41.30373333	174.8293003	3	0	
PAEK1	PAEK1	Paekakariki Station	PaekakarikiStn	-40.98721597	174.9544437	8	0	PAEK	
8333	8333	Manor Drive (near 18)	ManorDr (18)	-41.15844079	174.9844892	6	0	
1478	1478	Poplar Avenue at Matai Road	PoplarAve at Matai	-40.9370551	174.9814954	9	0	
8465	8465	Fergusson Drive at Bathurst Street	Fergusson at Bathurst	-41.14151998	175.0231457	6	0	
EPUN	EPUN	Epuni Station	EpuniStn	-41.20750643	174.9303115	5	0	
3410	3410	Bracken Road (near 29)	BrackenRd (29)	-41.22160415	174.8230492	3	0	
3614	3614	Helston Road (near 202)	HelstonRd (202)	-41.21791136	174.81734	3	0	
6345	6345	Tirangi Road near Kingsford Smith Street (near 95)	Tirangi Rd nr KingsfordSmith (95)	-41.324736	174.803042	3	0	
5362	5362	Parklands Drive at Landsdowne Terrace	ParklandsDr at Landsdowne	-41.29065173	174.7262082	3	0	
8558	8558	Gibbons Street at Flora McCurdy Walk (near 87)	GibbonsSt at FMcCurdyWalk (86)	-41.11942793	175.0651078	7	0	
8548	8548	Upper Hutt College - Moonshine Road (near 34)	UpperHuttColl-MoonshineRd (34)	-41.12713584	175.0420015	7	0	
6942	6942	Russell Terrace opposite Lavaud Street	RussellTce opp Lavaud	-41.32363864	174.7802866	2	0	
4346	4346	Victory Avenue opposite Montgomery Avenue	VictoryAve opp Montgomery	-41.28347609	174.7301984	3	0	
9857	9857	Muritai Road at Tawa Street	MuritaiRd at Tawa	-41.30518081	174.8888194	6	0	
8371	8371	Stokes Valley Road at Chittick Street (near 30)	StokesVlyRd at Chittick (30)	-41.17943158	174.9822284	6	0	
7730	7730	Kingston - Stop C	Kingston-C	-41.32359282	174.7635198	2	0	
5514	5514	Courtenay Place at Courtenay Central	CourtenayPl at CourtenayCtrl	-41.29289647	174.77989	1	0	
8527	8527	Ararino Street at Ranfurly Street (near 61)	ArarinoSt at Ranfurly (61)	-41.13560012	175.042145	7	0	
8518	8518	Kirton Drive at McEwen Crescent	KirtonDr at McEwen	-41.10981429	175.0418001	7	0	
3616	3616	Helston Road at Warren Street (near 168)	HelstonRd at Warren (168)	-41.21675786	174.8162345	3	0	
8698	8698	Gillespies Road (near 70) (school stop)	GillespiesRd (70) (sch)	-41.09059796	175.1052788	7	0	
1971	1971	South Road at Short Street	SouthRd at Short	-40.96056839	175.6453288	14	0	
9019	9019	Jessie Street at Jackson Street (near 26)	JessieSt at Jackson (26)	-41.22925627	174.890314	4	0	
8559	8559	Royal Street (near 21)	RoyalSt (21)	-41.12299676	175.0670065	7	0	
MAST	MAST	Masterton Station	MastertonStn	-40.94043328	175.6547484	14	0	
9211	9211	Major Drive at Viscount Grove (near 27)	MajorDr at Viscount (27)	-41.18682433	174.9287971	5	0	
5364	5364	Woodhouse Avenue (near 24)	WoodhouseAve (24)	-41.2900358	174.7252366	3	0	
1969	1969	South Road at Millard Avenue	SouthRd at Millard	-40.96297888	175.6423358	14	0	
1200	1200	Kapiti Road at Arawhata Road	KapitiRd at ArawhataRd	-40.90993	175.00106	9	0	
1188	1188	Arawhata Road at Marere Avenue	ArawhataRd at Marere	-40.90458581	175.0114177	9	0	
1262	1262	Gray Avenue at Martin Road (near 84)	GrayAve at Martin (84)	-40.89010348	174.9968867	9	0	
9177	9177	Bell Road (opposite 55)	BellRd (opp 55)	-41.22994049	174.9143152	4	0	
3263	3263	Hutt Road at Centennial Highway	HuttRd at Centennial	-41.24715179	174.8137345	3	0	
9101	9101	Kings Crescent at Pretoria Street (near 85)	KingsCres at Pretoria (85)	-41.20806553	174.9135579	4	0	
9957	9957	Meremere Street (near 38)	MeremereSt (38)	-41.24795507	174.9358455	5	0	
4125	4125	Wadestown Road opposite Lytton Street	WadestownRd opp Lytton	-41.2615297	174.7696077	2	0	
5320	5320	Zealandia - Chaytor Street (Appleton Park)	Zealandia-ChaytorSt (AppletonPk)	-41.28643876	174.7546373	2/3	0	
3899	3899	Tawa School (school stop)	TawaSch (sch)	-41.17306783	174.8255357	4	0	
5011	5011	Lambton Quay North - Stop C	LambtonQyN-C	-41.28011548	174.7759997	1	0	
9246	9246	High Street at Mabey Road	HighSt at Mabey	-41.19164293	174.9475401	5	0	
5000	5000	Courtenay Place - Stop A	CourtenayPl-A	-41.29379439	174.7823273	1	0	
2604	2604	Paremata Road (near 132)	ParemataRd (132)	-41.10346078	174.8770553	6	0	
